sim_time_sec,elapsed_time_sec,global_x,global_y,global_z,global_qx,global_qy,global_qz,global_qw,roll,pitch,yaw,global_vx,global_vy,global_vz,imu_angular_velocity_x,imu_angular_velocity_y,imu_angular_velocity_z,imu_linear_acceleration_x,imu_linear_acceleration_y,imu_linear_acceleration_z,imu_angular_acceleration_x,imu_angular_acceleration_y,imu_angular_acceleration_z
1780394733.413573980,0.452438116,-532.053885709,161.993611387,-0.059164529,-0.000874666,0.006505213,0.479477524,0.877529613,0.004703486,0.012256107,1.000170841,0.000000000,0.000000000,0.000000000,-0.018000000,-0.000750000,0.005750000,-0.050000000,0.105000000,9.650000000,0.031250000,0.281250000,0.312500000
1780394733.513535738,0.552399874,-532.053174331,161.994481148,-0.055126674,-0.001065465,0.005568133,0.479486086,0.877531170,0.003469937,0.010794382,1.000174279,0.013002152,0.018024538,0.037798578,-0.011250000,-0.006000000,-0.003000000,0.215000000,0.025000000,9.640000000,0.562500000,0.906250000,-0.625000000
1780394733.613543272,0.652407408,-532.051021692,161.997754426,-0.051900235,-0.001036343,0.004508088,0.479492914,0.877533560,0.002504442,0.008905953,1.000176395,0.027112347,0.042390085,0.028324533,-0.008500000,-0.026500000,-0.006000000,0.195000000,0.090000000,9.695000000,0.250000000,-3.531250000,1.250000000
1780394733.713690519,0.752554655,-532.048335187,162.002004798,-0.050074542,-0.000897332,0.003718248,0.479496402,0.877535509,0.001990947,0.007386390,1.000176848,0.037564022,0.059518564,0.019570240,0.006000000,-0.005000000,-0.013000000,0.240000000,0.075000000,9.630000000,1.281250000,0.843750000,-1.031250000
1780394733.813624144,0.852488279,-532.043979576,162.008832361,-0.048828313,-0.000826492,0.002873743,0.479499338,0.877537146,0.001305383,0.005836271,1.000176887,0.047935822,0.074493831,0.008093659,-0.016500000,-0.005500000,0.000750000,0.320000000,0.125000000,9.610000000,-2.718750000,0.656250000,-1.531250000
1780394733.913635015,0.952499151,-532.041799274,162.012195045,-0.048634352,-0.000873936,0.002554015,0.479500431,0.877537492,0.000915493,0.005320617,1.000177100,0.054232012,0.083447242,0.003504893,-0.015750000,-0.006750000,0.015750000,0.280000000,0.105000000,9.595000000,-0.093750000,-1.593750000,2.093750000
1780394734.013519287,1.052383423,-532.040629815,162.013986998,-0.048612582,-0.000916719,0.002401249,0.479500971,0.877537585,0.000693901,0.005093530,1.000177291,0.009857037,0.015103859,0.000183499,-0.013250000,-0.002250000,-0.001000000,0.260000000,-0.000000000,9.625000000,-0.531250000,0.031250000,-0.062500000
1780394734.113523006,1.152387142,-532.023186726,162.040693200,-0.052170061,-0.001812174,0.001018794,0.479506030,0.877536122,-0.002203475,0.003525961,1.000181920,0.082089287,0.127300482,-0.026608149,0.001000000,-0.010750000,0.009500000,0.225000000,0.025000000,9.640000000,1.000000000,-0.875000000,1.375000000
1780394734.213523865,1.252388000,-532.015127037,162.053291435,-0.055070746,-0.001997421,0.000670135,0.479506811,0.877535628,-0.002862966,0.003091694,1.000183224,0.093175199,0.146186556,-0.035163426,-0.011500000,-0.010000000,-0.006000000,0.235000000,0.025000000,9.655000000,0.104166667,0.166666667,-0.791666667
1780394734.313471317,1.352335453,-532.007083665,162.065932223,-0.058239337,-0.002080177,0.000348299,0.479507324,0.877535343,-0.003316851,0.002606212,1.000184501,0.108430512,0.170391668,-0.043530732,-0.004000000,-0.000250000,0.010750000,0.230000000,0.050000000,9.705000000,0.625000000,0.187500000,2.031250000
1780394734.413707733,1.452571869,-531.996052742,162.083207078,-0.062778397,-0.002196415,-0.000131130,0.479508295,0.877534588,-0.003980633,0.001876256,1.000187518,0.119280861,0.186290834,-0.049759722,-0.008500000,-0.009500000,-0.003500000,0.240000000,0.050000000,9.680000000,-0.250000000,-1.125000000,0.468750000
1780394734.513588190,1.552452326,-531.983987651,162.101994903,-0.067930545,-0.002398508,-0.000669633,0.479509857,0.877532960,-0.004851753,0.001124966,1.000192825,0.127295529,0.198042411,-0.055288589,-0.020750000,0.009750000,-0.014500000,0.210000000,-0.000000000,9.700000000,-2.375000000,1.343750000,-2.031250000
1780394734.613474607,1.652338743,-531.973154186,162.118877552,-0.072765090,-0.002590738,-0.001068152,0.479511463,0.877531141,-0.005571320,0.000609903,1.000198418,0.050738912,0.079243505,-0.023104675,0.002000000,-0.017250000,-0.000750000,0.240000000,-0.015000000,9.665000000,0.479166667,-2.541666667,0.458333333
1780394734.713476658,1.752340794,-531.959550869,162.140221724,-0.079133590,-0.002762052,-0.001354755,0.479513609,0.877529051,-0.006146849,0.000271209,1.000205055,0.135264103,0.212965500,-0.064486652,0.012000000,0.001750000,-0.009000000,0.270000000,-0.045000000,9.695000000,1.166666667,1.000000000,-0.312500000
1780394734.813502789,1.852366924,-531.945242262,162.162834837,-0.086075230,-0.002871491,-0.001401306,0.479516213,0.877527203,-0.006383565,0.000294485,1.000211290,0.140950282,0.223120714,-0.068873241,-0.003250000,0.005750000,0.006750000,0.190000000,0.015000000,9.695000000,-0.270833333,0.250000000,-0.208333333
1780394734.913540125,1.952404261,-531.930217162,162.186615819,-0.093399459,-0.003012160,-0.001281141,0.479519626,0.877525050,-0.006515203,0.000640313,1.000218200,0.151795412,0.240069704,-0.073577390,-0.009250000,0.009750000,0.007000000,0.205000000,-0.030000000,9.720000000,-1.208333333,0.500000000,0.854166667
1780394735.013540745,2.052404881,-531.914461281,162.211489416,-0.100897138,-0.003243264,-0.001093533,0.479523993,0.877522094,-0.006740878,0.001191247,1.000226769,0.160933602,0.253813922,-0.075471877,0.005000000,0.012750000,-0.007500000,0.205000000,-0.035000000,9.725000000,0.562500000,1.291666667,-0.187500000
1780394735.113536358,2.152400494,-531.898689230,162.236366516,-0.108103529,-0.003492294,-0.000886847,0.479528823,0.877518732,-0.006979712,0.001792862,1.000236229,0.163685831,0.258351856,-0.073451606,-0.005750000,0.023750000,0.009500000,0.165000000,-0.030000000,9.740000000,-0.270833333,1.437500000,2.270833333
1780394735.213745356,2.252609491,-531.882359931,162.262204322,-0.115210035,-0.003660202,-0.000635910,0.479533808,0.877515541,-0.007033727,0.002394342,1.000245875,0.170662131,0.270548638,-0.072721115,0.003500000,0.005750000,0.013000000,0.125000000,-0.045000000,9.755000000,-1.531250000,-1.343750000,3.812500000
1780394735.313491344,2.352355480,-531.864818749,162.290088819,-0.122406476,-0.003705671,-0.000304280,0.479538836,0.877512781,-0.006795459,0.003020012,1.000255506,0.182704113,0.290858022,-0.072945742,0.014250000,0.000250000,-0.012750000,0.185000000,-0.050000000,9.790000000,1.437500000,0.479166667,-0.750000000
1780394735.413583994,2.452448130,-531.847485287,162.317699173,-0.129019535,-0.003691741,0.000077473,0.479543526,0.877510325,-0.006404865,0.003676675,1.000264580,0.184047536,0.293134585,-0.068010797,-0.002250000,0.009250000,-0.008250000,0.110000000,-0.015000000,9.770000000,-0.041666667,-0.229166667,-1.125000000
1780394735.513649464,2.552513599,-531.832673275,162.341267611,-0.134244127,-0.003706899,0.000434534,0.479547459,0.877508008,-0.006089002,0.004317895,1.000272332,0.186910667,0.297205373,-0.064026429,0.004750000,0.006250000,-0.016000000,0.135000000,-0.015000000,9.815000000,0.843750000,-0.593750000,-1.906250000
1780394735.613481283,2.652345419,-531.819831808,162.361668667,-0.138446589,-0.003757227,0.000769007,0.479550825,0.877505726,-0.005856526,0.004953199,1.000279070,0.187388032,0.297586027,-0.059762722,0.010250000,0.015500000,0.007250000,0.100000000,-0.010000000,9.785000000,0.250000000,2.406250000,0.656250000
1780394735.713477850,2.752341986,-531.804454991,162.386084898,-0.143080360,-0.003840693,0.001212072,0.479554665,0.877502766,-0.005578050,0.005810869,1.000286946,0.206789115,0.328405042,-0.060138799,0.003250000,0.026750000,0.007500000,0.080000000,-0.020000000,9.795000000,0.416666667,0.770833333,1.229166667
1780394735.813735008,2.852599144,-531.789605985,162.409688158,-0.147143244,-0.003906673,0.001693337,0.479557951,0.877499882,-0.005232245,0.006718809,1.000294109,0.201416755,0.320371180,-0.053074079,-0.013500000,0.019000000,0.008250000,0.075000000,0.005000000,9.845000000,-1.406250000,1.562500000,1.687500000
1780394735.913524389,2.952388525,-531.772942277,162.436227834,-0.151207452,-0.003932406,0.002288470,0.479560911,0.877496799,-0.004706587,0.007787985,1.000301512,0.195862586,0.312166922,-0.045360920,0.007250000,0.023500000,-0.003250000,0.050000000,0.015000000,9.845000000,1.000000000,0.656250000,-1.156250000
1780394736.013597012,3.052461147,-531.756827743,162.461925075,-0.154611378,-0.003913391,0.002889452,0.479562984,0.877493977,-0.004096776,0.008824504,1.000308107,0.201562670,0.321456502,-0.040063534,0.000000000,0.014750000,-0.000500000,-0.010000000,0.065000000,9.795000000,-0.406250000,0.375000000,0.218750000
1780394736.113530159,3.152394295,-531.736335020,162.494582424,-0.158145786,-0.003871167,0.003631699,0.479564693,0.877490473,-0.003310729,0.010086683,1.000315846,0.204432432,0.325530623,-0.031628446,0.021000000,0.005250000,0.002750000,0.015000000,0.010000000,9.855000000,0.375000000,-2.312500000,0.687500000
1780394736.213696957,3.252561092,-531.719658972,162.521104447,-0.160347515,-0.003847988,0.004189449,0.479565511,0.877487642,-0.002735063,0.011043327,1.000321593,0.207867332,0.330366578,-0.024628900,0.032250000,0.010500000,0.004250000,0.050000000,0.095000000,9.835000000,2.468750000,0.343750000,4.562500000
1780394736.313506603,3.352370739,-531.706997290,162.541213856,-0.161620614,-0.003834516,0.004586262,0.479565810,0.877485554,-0.002330799,0.011726831,1.000325555,0.023890170,0.037929131,-0.002106157,0.022750000,0.007500000,-0.013250000,-0.015000000,0.050000000,9.880000000,1.208333333,-1.270833333,-2.354166667
1780394736.413698196,3.452562332,-531.689930906,162.568305188,-0.162815335,-0.003803498,0.005100525,0.479565671,0.877482926,-0.001783078,0.012599636,1.000330265,0.217297069,0.344942396,-0.012445103,0.002250000,0.018000000,-0.009250000,-0.040000000,0.015000000,9.830000000,-1.937500000,1.093750000,1.062500000
1780394736.513516665,3.552380800,-531.668338119,162.602595332,-0.163522896,-0.003717418,0.005744744,0.479564393,0.877480012,-0.001014065,0.013647702,1.000335131,0.219225282,0.348234535,-0.003700938,-0.004000000,0.015250000,-0.008000000,-0.050000000,0.080000000,9.815000000,-1.895833333,0.145833333,-1.229166667
1780394736.613595486,3.652459621,-531.650871721,162.630342297,-0.163482762,-0.003614372,0.006266563,0.479562428,0.877477945,-0.000332682,0.014464681,1.000338177,0.219701231,0.348985584,0.002987133,0.009500000,0.002250000,-0.002250000,-0.050000000,0.030000000,9.845000000,0.312500000,-1.104166667,-2.041666667
1780394736.713684797,3.752548933,-531.633233691,162.658341591,-0.162918181,-0.003506651,0.006780882,0.479559768,0.877476012,0.000349714,0.015264013,1.000340439,0.224720582,0.356543211,0.009639458,0.008500000,0.013000000,0.000250000,-0.045000000,0.070000000,9.850000000,-0.145833333,1.083333333,0.354166667
1780394736.813662052,3.852526188,-531.615420186,162.686570881,-0.161836729,-0.003417664,0.007269070,0.479556639,0.877474165,0.000974163,0.016035457,1.000341860,0.228672494,0.362104879,0.016292032,0.003750000,0.011500000,-0.000250000,-0.095000000,0.080000000,9.845000000,-0.354166667,-0.333333333,0.458333333
1780394736.913493872,3.952358007,-531.597435015,162.715016611,-0.160246473,-0.003351014,0.007718242,0.479553198,0.877472466,0.001521984,0.016759853,1.000342395,0.039946359,0.063130135,0.004042695,0.011500000,0.001500000,0.002000000,-0.085000000,0.045000000,9.820000000,0.125000000,-1.062500000,0.020833333
1780394737.013554096,4.052418232,-531.574732981,162.750870449,-0.157567453,-0.003270952,0.008220111,0.479548498,0.877470779,0.002143886,0.017563878,1.000341837,0.142942523,0.225671865,0.018665041,0.018750000,0.006750000,-0.007250000,-0.095000000,0.070000000,9.850000000,-0.062500000,-0.781250000,0.093750000
1780394737.113528728,4.152392864,-531.556414296,162.779786495,-0.154904483,-0.003181814,0.008574725,0.479544382,0.877469963,0.002640466,0.018100758,1.000340465,0.231218198,0.364953705,0.035593281,0.005750000,0.013500000,-0.005250000,-0.125000000,0.110000000,9.795000000,-0.718750000,1.375000000,-3.250000000
1780394737.213526964,4.252391100,-531.533334022,162.816206550,-0.150987291,-0.003029797,0.008953033,0.479538891,0.877469723,0.003270118,0.018618918,1.000337605,0.234570792,0.370036529,0.042145245,0.001250000,0.013250000,-0.006250000,-0.090000000,0.095000000,9.825000000,1.312500000,0.718750000,0.468750000
1780394737.313537359,4.352401495,-531.514724816,162.845541284,-0.147435126,-0.002894391,0.009192442,0.479534456,0.877470129,0.003737379,0.018909234,1.000334325,0.229100420,0.360952555,0.045191660,-0.000750000,0.021250000,-0.002750000,-0.110000000,0.075000000,9.850000000,-1.968750000,3.687500000,2.125000000
1780394737.413493156,4.452357292,-531.495986425,162.875031693,-0.143560366,-0.002768935,0.009367665,0.479530210,0.877471001,0.004125600,0.019096445,1.000330093,0.230573191,0.362626530,0.048915757,-0.000250000,-0.008000000,-0.012750000,-0.165000000,0.115000000,9.820000000,0.812500000,-0.500000000,-1.520833333
1780394737.513500690,4.552364826,-531.472392265,162.912091576,-0.138336799,-0.002637678,0.009499218,0.479525292,0.877472678,0.004482091,0.019201455,1.000323493,0.243404564,0.382036384,0.055246984,0.000500000,-0.003000000,0.007000000,-0.100000000,0.135000000,9.810000000,0.281250000,0.750000000,3.750000000
1780394737.613501310,4.652365446,-531.453396903,162.941887110,-0.133917015,-0.002543067,0.009546077,0.479521596,0.877474469,0.004693028,0.019192967,1.000317293,0.256299343,0.401905145,0.060420388,-0.010250000,0.008500000,0.004500000,-0.120000000,0.115000000,9.810000000,-1.031250000,0.031250000,-0.125000000
1780394737.713643789,4.752507925,-531.434310155,162.971808348,-0.129342533,-0.002443609,0.009551049,0.479518008,0.877476658,0.004872289,0.019106317,1.000310405,0.125049368,0.196004344,0.030219602,-0.001750000,0.004500000,0.004250000,-0.145000000,0.100000000,9.790000000,-1.250000000,1.156250000,1.656250000
1780394737.813638687,4.852502823,-531.413217751,163.004858917,-0.124198033,-0.002324048,0.009509323,0.479514187,0.877479524,0.005042024,0.018918429,1.000302098,0.160563587,0.251524699,0.039329078,0.011000000,0.003000000,-0.013750000,-0.125000000,0.130000000,9.780000000,1.312500000,0.520833333,-0.333333333
1780394737.913563251,4.952427387,-531.395884620,163.031998604,-0.119948890,-0.002225517,0.009431827,0.479511265,0.877482213,0.005140553,0.018687930,1.000294730,0.237121046,0.371151433,0.058105022,0.002500000,0.000500000,0.003000000,-0.165000000,0.120000000,9.770000000,0.812500000,0.270833333,0.208333333
1780394738.013510227,5.052374363,-531.370724036,163.071340562,-0.113825079,-0.002100517,0.009236399,0.479507596,0.877486605,0.005172378,0.018225069,1.000283177,0.244251635,0.381638146,0.059043083,0.002500000,-0.006000000,0.000250000,-0.150000000,0.115000000,9.800000000,-0.906250000,-0.593750000,0.375000000
1780394738.113543510,5.152407646,-531.352247513,163.100186693,-0.109412858,-0.002026720,0.009027595,0.479505383,0.877490161,0.005101537,0.017787837,1.000274122,0.242840101,0.378967080,0.057515568,-0.024750000,-0.007750000,0.001000000,-0.115000000,0.125000000,9.730000000,-4.125000000,1.125000000,1.656250000
1780394738.213474989,5.252339125,-531.332725734,163.130634225,-0.104875527,-0.001958112,0.008753420,0.479503394,0.877494182,0.004958883,0.017240847,1.000264150,0.255027484,0.397648511,0.058525276,0.012250000,0.009000000,0.002250000,-0.160000000,0.125000000,9.735000000,0.750000000,2.656250000,-0.281250000
1780394738.313576221,5.352440357,-531.308235561,163.168808297,-0.099432195,-0.001870290,0.008348033,0.479501178,0.877499535,0.004724082,0.016445145,1.000251222,0.260364903,0.405783045,0.056487307,-0.005000000,-0.007750000,-0.007750000,-0.135000000,0.095000000,9.750000000,-0.062500000,0.718750000,-1.312500000
1780394738.413557768,5.452421904,-531.288582844,163.199432052,-0.095321435,-0.001794783,0.007983990,0.479499496,0.877503999,0.004507353,0.015733810,1.000240604,0.054805304,0.085385924,0.011114875,-0.008250000,-0.004750000,-0.002250000,-0.090000000,0.060000000,9.680000000,0.166666667,-1.020833333,-0.333333333
1780394738.513514042,5.552378178,-531.265919180,163.234729704,-0.090929322,-0.001712606,0.007526537,0.479497636,0.877509222,0.004212735,0.014852138,1.000228155,0.244755279,0.381080029,0.045706894,-0.015250000,0.008750000,0.002500000,-0.090000000,0.080000000,9.700000000,-1.031250000,-0.062500000,1.937500000
1780394738.613568544,5.652432680,-531.243188417,163.270099943,-0.086956843,-0.001650955,0.007028990,0.479495878,0.877514428,0.003843653,0.013919782,1.000215544,0.247515593,0.384992459,0.041280427,-0.004250000,-0.022000000,0.006500000,-0.100000000,0.090000000,9.715000000,0.375000000,-0.854166667,0.166666667
1780394738.713480234,5.752344370,-531.218410300,163.308617768,-0.083175425,-0.001613315,0.006448797,0.479494025,0.877519966,0.003353170,0.012865401,1.000201800,0.248655992,0.386410300,0.035537062,-0.002500000,0.003000000,-0.003500000,-0.040000000,0.060000000,9.670000000,-0.270833333,0.229166667,-0.895833333
1780394738.813520670,5.852384806,-531.193571848,163.347206953,-0.080003779,-0.001594054,0.005841473,0.479492062,0.877525327,0.002804432,0.011781027,1.000188162,0.254921384,0.396013576,0.029913932,-0.007750000,-0.002500000,0.004750000,-0.095000000,0.070000000,9.725000000,0.500000000,0.333333333,0.104166667
1780394738.913550138,5.952414274,-531.168687142,163.385865717,-0.077483670,-0.001577334,0.005221719,0.479489822,0.877530487,0.002239334,0.010677270,1.000174718,0.244486893,0.379828179,0.022100375,-0.004000000,-0.020250000,0.008500000,-0.065000000,0.105000000,9.685000000,0.437500000,-1.375000000,0.354166667
1780394739.013555288,6.052419424,-531.145758113,163.421487871,-0.075769159,-0.001562763,0.004647268,0.479487478,0.877535024,0.001713935,0.009655082,1.000162572,0.244396057,0.379679415,0.015797231,0.005750000,-0.001250000,-0.006250000,-0.000000000,0.080000000,9.625000000,1.187500000,-0.166666667,-2.437500000
1780394739.113561392,6.152425528,-531.117800040,163.464914184,-0.074489844,-0.001559642,0.003945876,0.479484318,0.877540191,0.001046712,0.008421076,1.000148204,0.254506516,0.395255333,0.008281694,-0.012500000,-0.025250000,-0.000750000,-0.010000000,0.045000000,9.705000000,-2.593750000,0.000000000,-0.125000000
1780394739.213612556,6.252476692,-531.092800088,163.503733344,-0.074108408,-0.001579423,0.003325692,0.479481244,0.877544404,0.000417197,0.007351558,1.000135894,0.251835073,0.391014851,0.000947712,0.008250000,0.001000000,-0.000750000,0.005000000,0.080000000,9.675000000,0.000000000,-0.062500000,1.718750000
1780394739.313554049,6.352418184,-531.070779695,163.537925787,-0.074364244,-0.001610572,0.002797696,0.479478314,0.877547791,-0.000143841,0.006454737,1.000125506,0.251317530,0.390272262,-0.005338091,-0.003500000,-0.018750000,0.002500000,0.005000000,0.070000000,9.715000000,0.062500000,-0.875000000,-0.750000000
1780394739.413524151,6.452388287,-531.055759706,163.561254995,-0.074851024,-0.001634984,0.002454168,0.479476182,0.877549939,-0.000516139,0.005875214,1.000118652,0.232322215,0.360890439,-0.008946240,-0.016500000,-0.005750000,-0.000250000,0.020000000,0.045000000,9.670000000,0.958333333,-0.625000000,0.187500000
1780394739.513546944,6.552411079,-531.039735757,163.586153177,-0.075642924,-0.001661801,0.002106640,0.479473792,0.877552097,-0.000896489,0.005290978,1.000111532,0.028708482,0.044616546,-0.001651065,-0.023500000,-0.000000000,-0.005500000,0.035000000,0.085000000,9.705000000,-1.156250000,1.937500000,0.000000000
1780394739.613597870,6.652462006,-531.015696971,163.623524184,-0.077340506,-0.001704660,0.001626191,0.479470035,0.877555090,-0.001432461,0.004488826,1.000101225,0.183111828,0.284733913,-0.014818166,-0.000500000,-0.009250000,-0.004500000,-0.005000000,0.025000000,9.680000000,1.625000000,0.625000000,0.250000000
1780394739.713479519,6.752343655,-530.995661919,163.654685039,-0.079199273,-0.001747291,0.001264446,0.479466821,0.877557357,-0.001854191,0.003894795,1.000093014,0.262669763,0.408586066,-0.026274505,0.003000000,-0.007000000,-0.001000000,0.005000000,0.055000000,9.710000000,0.656250000,-0.906250000,-2.031250000
1780394739.813638210,6.852502346,-530.979631975,163.679623912,-0.080958342,-0.001788415,0.001000745,0.479464243,0.877559023,-0.002179252,0.003471394,1.000086720,0.254239809,0.395572990,-0.029164087,0.006750000,0.000000000,0.011000000,0.040000000,-0.010000000,9.700000000,2.843750000,-0.562500000,1.156250000
1780394739.913514853,6.952378988,-530.959593541,163.710809417,-0.083471436,-0.001848138,0.000705124,0.479461047,0.877560933,-0.002567564,0.003009804,1.000079198,0.272305486,0.423856182,-0.035842373,-0.020500000,0.006000000,0.000750000,0.060000000,0.065000000,9.745000000,-1.187500000,0.270833333,-0.104166667
1780394740.013515472,7.052379608,-530.939557233,163.742008493,-0.086301441,-0.001913019,0.000451226,0.479457903,0.877562679,-0.002924916,0.002626385,1.000072029,0.127030702,0.197852860,-0.018646512,-0.001250000,0.020500000,0.004750000,0.095000000,0.050000000,9.740000000,-0.145833333,2.020833333,1.333333333
1780394740.113519907,7.152384043,-530.919526854,163.773221771,-0.089410964,-0.001977858,0.000243787,0.479454827,0.877564298,-0.003237639,0.002324467,1.000065155,0.244899192,0.381746166,-0.039201368,0.005250000,-0.005500000,0.023500000,0.040000000,0.015000000,9.725000000,0.156250000,-0.187500000,3.500000000
1780394740.213602781,7.252466917,-530.894500532,163.812257832,-0.093630727,-0.002055465,0.000054651,0.479451114,0.877566181,-0.003555223,0.002066910,1.000056921,0.249552274,0.389416087,-0.043393240,-0.002000000,0.003250000,-0.001500000,0.085000000,0.005000000,9.730000000,0.750000000,0.458333333,-0.041666667
1780394740.313597202,7.352461338,-530.875489115,163.841937952,-0.097039284,-0.002113956,-0.000036079,0.479448427,0.877567511,-0.003744891,0.001963744,1.000050928,0.237908981,0.371517248,-0.043395154,-0.002750000,0.006000000,-0.009250000,0.045000000,0.015000000,9.725000000,0.406250000,1.031250000,0.125000000
1780394740.413491964,7.452356100,-530.854483810,163.874752915,-0.100960587,-0.002182076,-0.000083763,0.479445629,0.877568869,-0.003910181,0.001945360,1.000044588,0.240738704,0.376180636,-0.045529866,-0.013500000,0.004250000,-0.005000000,0.055000000,0.030000000,9.730000000,-0.833333333,0.770833333,-0.875000000
1780394740.513591766,7.552455902,-530.834485387,163.906014651,-0.104799936,-0.002251811,-0.000078100,0.479443146,0.877570050,-0.004027151,0.002022155,1.000038828,0.257345446,0.402380084,-0.049773666,0.013500000,0.002500000,-0.010500000,0.025000000,-0.025000000,9.720000000,0.645833333,-0.520833333,-2.520833333
1780394740.613541603,7.652405739,-530.814494218,163.937285985,-0.108694851,-0.002324249,-0.000021918,0.479440828,0.877571131,-0.004100426,0.002190213,1.000033307,0.131294692,0.205435037,-0.025654056,0.001250000,0.002500000,0.005750000,0.080000000,-0.020000000,9.740000000,1.000000000,0.218750000,0.062500000
1780394740.713846445,7.752710581,-530.794511551,163.968568192,-0.112598530,-0.002395441,0.000085557,0.479438648,0.877572126,-0.004122330,0.002447102,1.000027972,0.251025298,0.393092824,-0.048959069,0.021250000,-0.005250000,0.002250000,0.040000000,0.035000000,9.755000000,5.375000000,-1.875000000,-1.156250000
1780394740.813582420,7.852446556,-530.769545458,164.007687835,-0.117419255,-0.002478418,0.000290920,0.479436061,0.877573265,-0.004071060,0.002887096,1.000021507,0.256670282,0.402338634,-0.049103972,-0.001500000,0.022000000,0.008500000,0.025000000,0.005000000,9.790000000,-0.479166667,-0.062500000,1.687500000
1780394740.913535595,7.952399731,-530.744589883,164.046826485,-0.122091584,-0.002555191,0.000569620,0.479433568,0.877574270,-0.003938585,0.003449863,1.000015250,0.248610794,0.390024305,-0.045754333,0.016250000,0.017750000,-0.007250000,0.060000000,-0.000000000,9.805000000,1.645833333,2.979166667,-1.250000000
1780394741.013659716,8.052523851,-530.724629421,164.078150540,-0.125665550,-0.002614845,0.000839599,0.479431600,0.877574954,-0.003784423,0.003980912,1.000010400,0.251839037,0.395280262,-0.044273093,0.001000000,0.018500000,-0.000750000,0.035000000,0.015000000,9.805000000,0.562500000,-0.145833333,0.625000000
1780394741.113475800,8.152339935,-530.704670120,164.109486159,-0.129049491,-0.002674077,0.001147011,0.479429611,0.877575513,-0.003593633,0.004577257,1.000005682,0.243975293,0.383092288,-0.040388891,-0.001500000,0.004750000,0.001000000,0.015000000,0.010000000,9.770000000,0.406250000,-0.375000000,0.875000000
1780394741.213469267,8.252333403,-530.679721201,164.148672943,-0.132954258,-0.002745386,0.001579662,0.479427018,0.877576038,-0.003303959,0.005404999,0.999999924,0.256576850,0.403082613,-0.038516799,0.002500000,0.021250000,-0.001750000,-0.025000000,0.025000000,9.775000000,0.354166667,0.062500000,0.625000000
1780394741.313509703,8.352373838,-530.659761736,164.180037372,-0.135775390,-0.002797178,0.001961615,0.479424785,0.877576323,-0.003028643,0.006125045,0.999995384,0.254033550,0.399250423,-0.034517919,0.016500000,0.020750000,-0.000250000,-0.025000000,0.025000000,9.790000000,1.083333333,1.520833333,2.229166667
1780394741.413567305,8.452431440,-530.634810138,164.219262589,-0.138872412,-0.002853198,0.002478323,0.479421705,0.877576518,-0.002631544,0.007085665,0.999989744,0.263166078,0.413772059,-0.030525965,0.001000000,0.017000000,-0.004000000,0.015000000,-0.005000000,9.815000000,2.031250000,0.031250000,-1.343750000
1780394741.513470888,8.552335024,-530.614844139,164.250658347,-0.140973821,-0.002892157,0.002916950,0.479418966,0.877576539,-0.002279369,0.007892885,0.999985243,0.152420410,0.239686184,-0.015037715,0.009500000,0.015500000,0.000250000,0.000000000,0.020000000,9.830000000,0.979166667,-0.562500000,-0.083333333
1780394741.613507986,8.652372122,-530.594870752,164.282067522,-0.142716490,-0.002927949,0.003371504,0.479415956,0.877576436,-0.001906367,0.008725026,0.999980738,0.246138794,0.387061897,-0.019762316,-0.001000000,0.011750000,-0.017250000,-0.035000000,0.060000000,9.800000000,-2.437500000,0.781250000,-0.968750000
1780394741.713604689,8.752468824,-530.570889553,164.319776201,-0.144309193,-0.002967871,0.003929818,0.479411966,0.877576159,-0.001441131,0.009743250,0.999975297,0.193598289,0.304401083,-0.010978748,0.015250000,0.009500000,0.010500000,-0.035000000,0.040000000,9.825000000,-0.270833333,-0.145833333,1.354166667
1780394741.813649893,8.852514029,-530.543890845,164.362222638,-0.145424998,-0.003006591,0.004564664,0.479406956,0.877575692,-0.000900413,0.010894653,0.999969066,0.249402946,0.392071879,-0.007563724,0.001250000,0.016500000,-0.002250000,-0.070000000,0.065000000,9.820000000,-1.437500000,0.750000000,1.625000000
1780394741.913576126,8.952440262,-530.519872727,164.399975547,-0.145801990,-0.003032150,0.005126367,0.479402023,0.877575197,-0.000406726,0.011905063,0.999963366,0.260194185,0.408949724,-0.001587363,-0.002500000,0.010750000,-0.008500000,-0.095000000,0.025000000,9.840000000,-1.031250000,-0.031250000,-1.281250000
1780394742.013566732,9.052430868,-530.498840208,164.433027035,-0.145655023,-0.003047010,0.005608816,0.479397353,0.877574746,0.000029747,0.012766115,0.999958213,0.249494248,0.392020336,0.003744616,0.004500000,0.004750000,-0.000750000,-0.095000000,0.025000000,9.850000000,1.343750000,-0.125000000,-1.000000000
1780394742.113522053,9.152386189,-530.474781100,164.470819443,-0.144948984,-0.003057404,0.006141190,0.479391666,0.877574253,0.000521921,0.013710518,0.999952092,0.244528574,0.384029117,0.009448760,0.017000000,0.022000000,0.004000000,-0.100000000,0.070000000,9.810000000,-0.125000000,-0.395833333,1.020833333
1780394742.213541508,9.252405643,-530.453707911,164.503903639,-0.143873244,-0.003062800,0.006583332,0.479386445,0.877573880,0.000936352,0.014491758,0.999946492,0.257896177,0.404801754,0.015105937,0.014500000,0.018250000,-0.018000000,-0.110000000,0.045000000,9.835000000,2.062500000,0.406250000,-3.625000000
1780394742.313662291,9.352526426,-530.428593117,164.543308065,-0.142060588,-0.003065450,0.007073307,0.479380016,0.877573570,0.001401454,0.015354330,0.999939480,0.249426011,0.391232663,0.020211136,-0.000500000,-0.003500000,0.011750000,-0.080000000,0.040000000,9.850000000,-0.604166667,-0.708333333,0.437500000
1780394742.413483620,9.452347755,-530.403448097,164.582732358,-0.139706677,-0.003062476,0.007517187,0.479373444,0.877573481,0.001832223,0.016130607,0.999932047,0.252132767,0.395203363,0.025652468,-0.000000000,0.006750000,-0.000000000,-0.095000000,0.095000000,9.780000000,0.156250000,-0.625000000,0.812500000
1780394742.513617992,9.552482128,-530.378272918,164.622176136,-0.136859537,-0.003052418,0.007908563,0.479366827,0.877573691,0.002225078,0.016807942,0.999924153,0.250408207,0.392218029,0.030137979,-0.011750000,0.004750000,-0.000250000,-0.175000000,0.105000000,9.820000000,-1.937500000,-1.281250000,-1.562500000
1780394742.613476992,9.652341127,-530.355084450,164.658480549,-0.133853068,-0.003037648,0.008216305,0.479360801,0.877574206,0.002546010,0.017333961,0.999916449,0.163843774,0.256437755,0.022225178,0.012250000,-0.007250000,0.004250000,-0.135000000,0.080000000,9.800000000,0.416666667,-0.458333333,1.875000000
1780394742.713637114,9.752501249,-530.329848828,164.697957659,-0.130224295,-0.003017907,0.008487552,0.479354440,0.877575167,0.002840665,0.017791162,0.999907566,0.199960924,0.312694935,0.029804423,0.004000000,-0.014000000,-0.003250000,-0.125000000,0.075000000,9.815000000,-0.843750000,-2.437500000,0.031250000
1780394742.813572884,9.852437019,-530.305592276,164.735869626,-0.126450839,-0.002996775,0.008681312,0.479348620,0.877576523,0.003063458,0.018111022,0.999898522,0.199076197,0.311035745,0.031783031,-0.004000000,0.022750000,0.007750000,-0.160000000,0.100000000,9.765000000,-1.218750000,2.343750000,0.781250000
1780394742.913622856,9.952486992,-530.285356566,164.767472594,-0.123138462,-0.002977295,0.008791105,0.479344036,0.877578001,0.003202851,0.018285077,0.999890600,0.250106084,0.390501122,0.041510891,0.018000000,0.021250000,-0.008000000,-0.150000000,0.115000000,9.770000000,1.833333333,2.270833333,-1.750000000
1780394743.013518095,10.052382231,-530.260035602,164.806987776,-0.118849334,-0.002949586,0.008861456,0.479338688,0.877580308,0.003318847,0.018382016,0.999880223,0.263398808,0.410919795,0.045103529,-0.004500000,0.015250000,-0.004500000,-0.130000000,0.095000000,9.790000000,0.687500000,0.125000000,-0.166666667
1780394743.113596201,10.152460337,-530.239758890,164.838608150,-0.115350274,-0.002924688,0.008863997,0.479334739,0.877582522,0.003364907,0.018362618,0.999871558,0.258426014,0.402903704,0.044733546,0.007500000,0.006000000,-0.005500000,-0.160000000,0.110000000,9.700000000,0.468750000,2.250000000,-0.593750000
1780394743.213475227,10.252339363,-530.217434844,164.873397609,-0.111486694,-0.002895543,0.008811525,0.479330752,0.877585325,0.003365665,0.018242588,0.999861677,0.256956974,0.400326767,0.044381759,-0.009500000,-0.005500000,-0.018750000,-0.160000000,0.135000000,9.735000000,0.104166667,0.666666667,-0.875000000
1780394743.313504934,10.352369070,-530.197123028,164.905029510,-0.108007359,-0.002868659,0.008713913,0.479327458,0.877588187,0.003319180,0.018045488,0.999852401,0.252638392,0.393341580,0.042994693,0.007000000,-0.008250000,0.016750000,-0.130000000,0.055000000,9.745000000,0.125000000,-0.531250000,2.093750000
1780394743.413498402,10.452362537,-530.181878963,164.928755988,-0.105444816,-0.002848681,0.008610122,0.479325192,0.877590515,0.003254669,0.017844158,0.999845281,0.283270390,0.440824514,0.047287435,-0.002250000,0.001250000,-0.003500000,-0.140000000,0.060000000,9.720000000,0.104166667,-0.625000000,1.666666667
1780394743.513472080,10.552336216,-530.161541025,164.960394058,-0.102123833,-0.002822257,0.008432401,0.479322424,0.877593838,0.003130571,0.017506882,0.999835601,0.119810523,0.186339295,0.019272632,0.009000000,-0.006000000,-0.001250000,-0.145000000,0.080000000,9.750000000,0.375000000,-0.270833333,0.229166667
1780394743.613564491,10.652428627,-530.141190288,164.992034699,-0.098948897,-0.002795623,0.008211973,0.479319916,0.877597383,0.002965899,0.017094440,0.999825748,0.269269761,0.418571414,0.041162962,-0.001000000,-0.000000000,0.009250000,-0.130000000,0.070000000,9.710000000,0.968750000,1.156250000,2.187500000
1780394743.713579655,10.752443790,-530.115736370,165.031588059,-0.095243577,-0.002761488,0.007880648,0.479317090,0.877602072,0.002708055,0.016480150,0.999813256,0.256448559,0.398410553,0.035990295,-0.004500000,-0.007500000,-0.008000000,-0.110000000,0.090000000,9.750000000,0.312500000,-1.156250000,-0.218750000
1780394743.813537598,10.852401733,-530.095362580,165.063231709,-0.092533385,-0.002733773,0.007574539,0.479315030,0.877605979,0.002463145,0.015916271,0.999803180,0.254594638,0.395363002,0.032698550,-0.002750000,-0.009750000,0.008000000,-0.085000000,0.040000000,9.675000000,0.656250000,-0.687500000,0.187500000
1780394743.913412094,10.952276230,-530.074980712,165.094875084,-0.090084476,-0.002706441,0.007235324,0.479313104,0.877609978,0.002185829,0.015294646,0.999793081,0.247130492,0.383620846,0.028420355,0.001000000,-0.014000000,0.000750000,-0.115000000,0.075000000,9.735000000,-0.020833333,-1.270833333,-1.270833333
1780394744.013544559,11.052408695,-530.054592179,165.126517169,-0.087926320,-0.002680113,0.006866564,0.479311273,0.877614022,0.001878436,0.014622124,0.999783007,0.282767403,0.438786706,0.028333764,-0.003500000,-0.007500000,0.004750000,-0.110000000,0.085000000,9.720000000,-0.250000000,0.520833333,1.000000000
1780394744.113525152,11.152389288,-530.034198714,165.158157123,-0.086084973,-0.002654927,0.006472415,0.479309491,0.877618067,0.001544707,0.013906129,0.999773009,0.048398663,0.075080019,0.003995383,0.003250000,-0.011000000,0.006250000,-0.105000000,0.070000000,9.670000000,1.166666667,-0.770833333,-1.833333333
1780394744.213609934,11.252474070,-530.013802333,165.189794270,-0.084582761,-0.002630561,0.006057552,0.479307714,0.877622072,0.001189690,0.013154557,0.999763133,0.248866320,0.385993996,0.016724637,-0.004250000,-0.012750000,0.006000000,-0.055000000,0.055000000,9.700000000,-1.968750000,-0.906250000,0.625000000
1780394744.313580751,11.352444887,-529.988305901,165.229335805,-0.083209393,-0.002600672,0.005517334,0.479305435,0.877626968,0.000724190,0.012177656,0.999751025,0.250754793,0.388868750,0.011241411,0.004750000,-0.004750000,-0.007250000,-0.060000000,0.040000000,9.695000000,1.812500000,1.281250000,-0.406250000
1780394744.413985491,11.452849627,-529.967910294,165.260964256,-0.082530677,-0.002577178,0.005073783,0.479303530,0.877630754,0.000340165,0.011376562,0.999741576,0.257118963,0.398722713,0.006759636,0.005000000,-0.004000000,0.002250000,-0.075000000,0.035000000,9.715000000,-1.093750000,0.312500000,-1.156250000
1780394744.513603687,11.552467823,-529.942420457,165.300492575,-0.082221225,-0.002548918,0.004512882,0.479301010,0.877635277,-0.000147991,0.010364912,0.999730115,0.253785022,0.393563891,0.000676121,-0.002000000,-0.031000000,0.009250000,-0.060000000,0.070000000,9.715000000,1.718750000,-3.750000000,-0.906250000
1780394744.613491535,11.652355671,-529.922034326,165.332108563,-0.082408992,-0.002527647,0.004064765,0.479298869,0.877638697,-0.000540271,0.009557933,0.999721264,0.268672234,0.416689002,-0.004387587,-0.015250000,0.010750000,-0.002250000,-0.040000000,0.020000000,9.695000000,-1.854166667,0.645833333,0.041666667
1780394744.713655949,11.752520084,-529.901655219,165.363718041,-0.082982194,-0.002507584,0.003622487,0.479296611,0.877641925,-0.000929066,0.008762359,0.999712718,0.266022312,0.412648660,-0.009356824,-0.007750000,-0.003750000,-0.019500000,-0.010000000,0.070000000,9.665000000,-0.229166667,0.416666667,-2.479166667
1780394744.813475847,11.852339983,-529.876194105,165.403220206,-0.084230827,-0.002483662,0.003085483,0.479293626,0.877645675,-0.001401888,0.007796807,0.999702489,0.275251523,0.427105182,-0.016015050,-0.015250000,-0.012250000,-0.015000000,-0.010000000,0.040000000,9.710000000,-0.770833333,-0.458333333,-2.729166667
1780394744.913507223,11.952371359,-529.855837647,165.434813859,-0.085641776,-0.002464977,0.002674520,0.479291118,0.877648446,-0.001763063,0.007057518,0.999694673,0.158587697,0.246165066,-0.012036569,0.001750000,-0.005750000,-0.009250000,-0.005000000,0.025000000,9.710000000,1.687500000,1.812500000,-2.593750000
1780394745.013473749,12.052337885,-529.830410154,165.474295343,-0.087894174,-0.002442041,0.002191558,0.479287861,0.877651628,-0.002185791,0.006187769,0.999685365,0.164261327,0.255104833,-0.015906652,-0.005750000,-0.002000000,-0.014250000,-0.010000000,-0.020000000,9.705000000,-0.895833333,-0.166666667,-1.187500000
1780394745.113592625,12.152456760,-529.810084142,165.505871690,-0.090061862,-0.002424289,0.001834791,0.479285187,0.877653955,-0.002496638,0.005544503,0.999678282,0.252398651,0.392170600,-0.028365778,-0.010250000,-0.004250000,-0.001000000,0.035000000,0.035000000,9.740000000,1.218750000,-0.562500000,0.843750000
1780394745.213645697,12.252509832,-529.784698355,165.545330733,-0.093187676,-0.002403197,0.001432031,0.479281805,0.877656610,-0.002845708,0.004817298,0.999669867,0.252666979,0.392844593,-0.032849878,0.003000000,-0.001000000,-0.014250000,0.030000000,0.030000000,9.720000000,1.979166667,2.000000000,-0.979166667
1780394745.313543320,12.352407455,-529.759338514,165.584777113,-0.096722784,-0.002383199,0.001083671,0.479278428,0.877659008,-0.003144546,0.004186631,0.999661911,0.250554455,0.389845841,-0.036412642,0.015250000,0.007500000,0.003750000,0.015000000,-0.000000000,9.735000000,3.645833333,1.187500000,1.520833333
1780394745.413489819,12.452353954,-529.738057533,165.617902539,-0.099961823,-0.002366816,0.000837636,0.479275629,0.877660850,-0.003351636,0.003739044,0.999655550,0.252014029,0.392380294,-0.039362627,-0.002500000,-0.006500000,0.007750000,0.020000000,0.045000000,9.750000000,-0.031250000,-1.812500000,0.187500000
1780394745.513511181,12.552375317,-529.712749317,165.657326687,-0.104077530,-0.002347379,0.000604670,0.479272379,0.877662869,-0.003540838,0.003311467,0.999648314,0.248674477,0.387506799,-0.041409620,-0.004250000,0.013250000,0.006750000,0.055000000,0.040000000,9.715000000,-0.937500000,2.062500000,2.156250000
1780394745.613493443,12.652357578,-529.687469917,165.696739543,-0.108404118,-0.002328048,0.000440414,0.479269249,0.877664727,-0.003664362,0.003004600,0.999641395,0.255552454,0.398565691,-0.044420735,0.013750000,0.003000000,0.001750000,0.045000000,0.045000000,9.770000000,1.875000000,0.031250000,-1.531250000
1780394745.713511467,12.752375603,-529.663228371,165.734565881,-0.112682404,-0.002309921,0.000349670,0.479266374,0.877666386,-0.003719534,0.002827926,0.999635004,0.258304097,0.403185512,-0.045936012,-0.001000000,-0.002500000,-0.006500000,-0.005000000,-0.005000000,9.710000000,0.958333333,0.354166667,-1.854166667
1780394745.813498735,12.852362871,-529.643046446,165.766080930,-0.116287942,-0.002295263,0.000325078,0.479264075,0.877667689,-0.003717383,0.002770699,0.999629830,0.251047374,0.392120521,-0.044906480,-0.001750000,-0.014750000,0.007750000,0.030000000,0.025000000,9.745000000,0.687500000,-1.625000000,-1.562500000
1780394745.913661242,12.952525377,-529.618850406,165.803891630,-0.120599230,-0.002278058,0.000357207,0.479261420,0.877669171,-0.003656394,0.002810594,0.999623760,0.250111513,0.390965096,-0.044350264,0.003500000,0.004000000,0.003500000,0.055000000,-0.005000000,9.795000000,-0.531250000,0.218750000,1.781250000
1780394746.013530254,13.052394390,-529.593670483,165.843270493,-0.124997355,-0.002260284,0.000461677,0.479258741,0.877670632,-0.003525067,0.002976927,0.999617548,0.249209883,0.389858786,-0.042978571,0.011500000,0.001250000,-0.008750000,0.015000000,0.010000000,9.775000000,0.562500000,0.593750000,-3.218750000
1780394746.113483191,13.152347326,-529.571530818,165.877918870,-0.128725229,-0.002244714,0.000612103,0.479256415,0.877671850,-0.003353559,0.003226044,0.999612136,0.246678599,0.386141766,-0.040823121,0.004000000,0.014500000,-0.002500000,-0.015000000,0.000000000,9.780000000,1.906250000,1.781250000,0.375000000
1780394746.213502645,13.252366781,-529.547395900,165.915712919,-0.132573552,-0.002228069,0.000835989,0.479253857,0.877673104,-0.003109756,0.003603079,0.999606252,0.256330501,0.401493987,-0.039761721,0.006250000,0.015250000,-0.010250000,0.020000000,-0.015000000,9.775000000,0.145833333,-0.583333333,-1.500000000
1780394746.313499212,13.352363348,-529.523276262,165.953503857,-0.136129035,-0.002212149,0.001118545,0.479251216,0.877674272,-0.002810992,0.004083797,0.999600358,0.249679166,0.391276960,-0.035457006,0.005250000,-0.010750000,-0.011750000,-0.025000000,0.020000000,9.825000000,1.229166667,-1.812500000,-0.395833333
1780394746.413599968,13.452464104,-529.498164480,165.992867600,-0.139454225,-0.002196542,0.001470313,0.479248297,0.877675386,-0.002446440,0.004686311,0.999594173,0.255419151,0.400446314,-0.032098585,0.010500000,0.013250000,-0.005250000,0.020000000,0.010000000,9.775000000,0.718750000,-0.343750000,-1.406250000
1780394746.513625622,13.552489758,-529.473062178,166.032231110,-0.142330370,-0.002181931,0.001874778,0.479245124,0.877676384,-0.002033132,0.005382282,0.999587908,0.251810925,0.394918960,-0.026912132,0.005000000,-0.000750000,0.011000000,0.000000000,0.015000000,9.805000000,-1.937500000,-0.406250000,2.125000000
1780394746.613535881,13.652400017,-529.448969313,166.070021338,-0.144616953,-0.002168913,0.002306253,0.479241766,0.877677222,-0.001596737,0.006127197,0.999581790,0.246632974,0.386877442,-0.021414902,0.016500000,0.011000000,0.010500000,-0.010000000,0.040000000,9.850000000,0.906250000,-2.031250000,1.531250000
1780394746.713502169,13.752366304,-529.423874225,166.109388869,-0.146458727,-0.002156769,0.002793156,0.479237878,0.877677961,-0.001108752,0.006970250,0.999575284,0.244203183,0.383099264,-0.015683923,0.003750000,-0.003750000,0.002750000,-0.030000000,0.025000000,9.840000000,-0.020833333,-0.708333333,0.895833333
1780394746.813539743,13.852403879,-529.402792683,166.142460685,-0.147552354,-0.002148082,0.003225553,0.479234266,0.877678472,-0.000679081,0.007720942,0.999569696,0.227646621,0.357115935,-0.010055450,0.011250000,0.006750000,-0.008000000,-0.030000000,0.035000000,9.800000000,2.156250000,-0.937500000,-1.468750000
1780394746.913509369,13.952373505,-529.386727973,166.167660646,-0.148096182,-0.002142578,0.003565846,0.479231288,0.877678795,-0.000343273,0.008313013,0.999565354,0.245395613,0.384928761,-0.006971061,0.000500000,0.022000000,0.010000000,-0.025000000,0.060000000,9.840000000,-0.604166667,0.854166667,1.125000000
1780394747.013474703,14.052338839,-529.366642308,166.199164043,-0.148414966,-0.002137171,0.004000411,0.479227283,0.877679122,0.000082715,0.009070659,0.999559812,0.249965035,0.392031687,-0.002076767,0.007250000,0.010750000,-0.008500000,-0.000000000,0.015000000,9.800000000,0.041666667,0.354166667,0.395833333
1780394747.113491774,14.152355909,-529.346549665,166.230671824,-0.148326886,-0.002133465,0.004440768,0.479222963,0.877679372,0.000511263,0.009840110,0.999554129,0.269808851,0.423054756,0.003240522,-0.006750000,0.003000000,0.009000000,-0.030000000,0.065000000,9.835000000,-2.375000000,-0.687500000,0.687500000
1780394747.213569164,14.252433300,-529.331474583,166.254305859,-0.147992586,-0.002131853,0.004771949,0.479219522,0.877679516,0.000831501,0.010419924,0.999549768,0.265987063,0.416970992,0.007248413,0.006250000,0.005250000,-0.003250000,-0.040000000,0.020000000,9.820000000,-0.531250000,-1.281250000,-1.187500000
1780394747.313483715,14.352347851,-529.306336775,166.293702557,-0.146927759,-0.002131591,0.005319600,0.479213427,0.877679696,0.001356829,0.011381030,0.999542286,0.249142566,0.390390527,0.013044682,-0.002250000,0.012750000,-0.004000000,-0.060000000,0.050000000,9.805000000,-1.031250000,0.406250000,-0.562500000
1780394747.413534164,14.452398300,-529.286213440,166.325226273,-0.145627180,-0.002133832,0.005748388,0.479208263,0.877679807,0.001763838,0.012135885,0.999536095,0.247982486,0.388406851,0.017834104,-0.000250000,-0.005500000,0.004250000,-0.090000000,0.105000000,9.805000000,-1.270833333,-1.583333333,0.312500000
1780394747.513585806,14.552449942,-529.266077016,166.356755921,-0.143940573,-0.002138518,0.006163738,0.479202884,0.877679914,0.002153674,0.012869502,0.999529706,0.245852921,0.384885798,0.022313466,0.013250000,0.022000000,-0.001250000,-0.090000000,0.085000000,9.810000000,2.406250000,1.906250000,0.187500000
1780394747.613526583,14.652390718,-529.245926367,166.388291701,-0.141884518,-0.002145821,0.006561103,0.479197337,0.877680044,0.002521673,0.013574059,0.999523101,0.262481914,0.410701722,0.028523221,0.011000000,0.016000000,-0.000250000,-0.075000000,0.030000000,9.785000000,0.218750000,1.312500000,1.656250000
1780394747.713573694,14.752437830,-529.225760570,166.419833765,-0.139479871,-0.002155826,0.006936176,0.479191676,0.877680226,0.002863558,0.014242078,0.999516266,0.119791747,0.187330444,0.015025833,0.006000000,0.007750000,0.004250000,-0.105000000,0.095000000,9.805000000,-0.281250000,0.375000000,0.812500000
1780394747.813468933,14.852333069,-529.203559818,166.454537398,-0.136461978,-0.002169999,0.007318188,0.479185385,0.877680524,0.003204767,0.014926280,0.999508463,0.181683849,0.283921740,0.025990204,-0.005500000,0.014500000,-0.001250000,-0.115000000,0.130000000,9.805000000,-0.468750000,-1.218750000,-0.843750000
1780394747.913563251,14.952427387,-529.181339069,166.489248744,-0.133090937,-0.002187564,0.007663329,0.479179105,0.877680963,0.003504678,0.015549013,0.999500347,0.294277555,0.459571504,0.046307455,-0.007750000,-0.002250000,0.005250000,-0.145000000,0.100000000,9.815000000,-0.968750000,-1.468750000,-0.125000000
1780394748.013571024,15.052435160,-529.165165625,166.514498141,-0.130442103,-0.002202543,0.007888555,0.479174591,0.877681395,0.003694208,0.015958759,0.999494240,0.242876012,0.379101305,0.040562157,-0.001000000,0.001000000,-0.006750000,-0.155000000,0.070000000,9.775000000,-1.187500000,-0.375000000,-1.270833333
1780394748.113520861,15.152384996,-529.144933288,166.546065412,-0.126928483,-0.002223964,0.008136848,0.479169063,0.877682092,0.003894519,0.016415179,0.999486355,0.259174266,0.404272637,0.045982743,-0.008000000,-0.004500000,0.003750000,-0.115000000,0.105000000,9.820000000,-0.062500000,-1.843750000,1.093750000
1780394748.213527918,15.252392054,-529.124683572,166.577638628,-0.123225418,-0.002248434,0.008345690,0.479163715,0.877682988,0.004051663,0.016805268,0.999478187,0.115243593,0.179641582,0.021422545,-0.004500000,0.008750000,-0.011250000,-0.110000000,0.100000000,9.805000000,-0.812500000,0.708333333,-1.666666667
1780394748.313589096,15.352453232,-529.104416525,166.609217548,-0.119373290,-0.002275924,0.008512825,0.479158596,0.877684107,0.004163525,0.017125035,0.999469734,0.250667005,0.390475766,0.048206917,-0.000500000,0.003500000,0.005000000,-0.130000000,0.115000000,9.830000000,0.843750000,0.937500000,0.656250000
1780394748.413713455,15.452577591,-529.079058684,166.648698787,-0.114413052,-0.002314375,0.008660431,0.479152583,0.877685845,0.004237404,0.017421034,0.999458772,0.249294680,0.388013339,0.049199727,0.003500000,0.011250000,-0.003250000,-0.130000000,0.110000000,9.785000000,-1.791666667,0.333333333,0.562500000
1780394748.513510704,15.552374840,-529.053674828,166.688187842,-0.109371631,-0.002357134,0.008737704,0.479147057,0.877687983,0.004236303,0.017597691,0.999447387,0.260515184,0.405144885,0.051837847,-0.005000000,0.012000000,-0.004500000,-0.165000000,0.105000000,9.735000000,0.218750000,1.218750000,-0.781250000
1780394748.613596439,15.652460575,-529.033349674,166.719784189,-0.105338872,-0.002394288,0.008747982,0.479143013,0.877689987,0.004180847,0.017651362,0.999437992,0.256033503,0.397920378,0.050641749,-0.002500000,0.013500000,0.004250000,-0.140000000,0.075000000,9.745000000,0.468750000,0.968750000,0.468750000
1780394748.713511229,15.752375364,-529.013009142,166.751384587,-0.101355352,-0.002433927,0.008712293,0.479139316,0.877692251,0.004076971,0.017626716,0.999428365,0.250548721,0.389154605,0.048705623,0.000250000,-0.008000000,0.000750000,-0.155000000,0.130000000,9.745000000,-1.937500000,-0.041666667,0.062500000
1780394748.813473701,15.852337837,-528.992654002,166.782988559,-0.097465926,-0.002475879,0.008631034,0.479135963,0.877694767,0.003925357,0.017524289,0.999418531,0.274143279,0.425548745,0.051763353,-0.005250000,0.009250000,0.009750000,-0.150000000,0.120000000,9.730000000,-0.531250000,1.000000000,1.843750000
1780394748.913565874,15.952430010,-528.967190934,166.822497798,-0.092803483,-0.002531214,0.008466825,0.479132238,0.877698242,0.003670731,0.017289068,0.999405996,0.263591783,0.408884401,0.047147324,0.005250000,0.009250000,-0.002000000,-0.135000000,0.110000000,9.745000000,2.218750000,3.312500000,0.343750000
1780394749.013516903,16.052381039,-528.941708531,166.862010861,-0.088439948,-0.002589223,0.008235768,0.479128986,0.877702046,0.003347344,0.016939054,0.999393261,0.257722747,0.399525583,0.042715868,-0.004000000,0.000750000,0.000500000,-0.100000000,0.110000000,9.735000000,-0.218750000,-0.562500000,-1.281250000
1780394749.113616228,16.152480364,-528.921310234,166.893623381,-0.085217306,-0.002637129,0.008005433,0.479126686,0.877705291,0.003042412,0.016580620,0.999382985,0.056116631,0.086948946,0.008515331,0.002000000,0.002000000,0.010000000,-0.160000000,0.050000000,9.710000000,0.781250000,2.593750000,2.031250000
1780394749.213563442,16.252427578,-528.900902324,166.925237162,-0.082273880,-0.002686007,0.007737346,0.479124611,0.877708680,0.002699598,0.016156839,0.999372681,0.252253683,0.390705800,0.034986233,-0.021000000,-0.010500000,0.008250000,-0.115000000,0.100000000,9.730000000,-2.562500000,-0.031250000,0.312500000
1780394749.313590288,16.352454424,-528.875381028,166.964755341,-0.079039744,-0.002747938,0.007353581,0.479122269,0.877713065,0.002222997,0.015542491,0.999359835,0.251950981,0.390064595,0.029837788,-0.006000000,-0.014500000,0.014000000,-0.100000000,0.070000000,9.730000000,0.437500000,-1.406250000,2.125000000
1780394749.413467646,16.452331781,-528.849849791,167.004273617,-0.076356227,-0.002810078,0.006921817,0.479120129,0.877717548,0.001700042,0.014844076,0.999347123,0.254362480,0.393660635,0.024408175,-0.025250000,-0.009000000,0.012250000,-0.115000000,0.050000000,9.715000000,-2.354166667,0.291666667,0.041666667
1780394749.513615370,16.552479506,-528.824311787,167.043790988,-0.074274738,-0.002871562,0.006449343,0.479118101,0.877722055,0.001139241,0.014073560,0.999334643,0.262811954,0.406637308,0.018830898,-0.014750000,0.012500000,0.010250000,-0.095000000,0.065000000,9.690000000,-1.343750000,3.062500000,0.562500000
1780394749.613661766,16.652525902,-528.798770405,167.083306483,-0.072836758,-0.002931471,0.005944157,0.479116107,0.877726512,0.000549871,0.013244105,0.999322497,0.257987155,0.399118328,0.011841750,-0.012750000,-0.003750000,-0.008500000,-0.090000000,0.045000000,9.700000000,0.062500000,-0.625000000,0.625000000
1780394749.713500738,16.752364874,-528.778337242,167.114916887,-0.072170781,-0.002977662,0.005522183,0.479114490,0.877729995,0.000064354,0.012547583,0.999313083,0.258918650,0.400549707,0.006353810,-0.003000000,0.003750000,0.004250000,-0.065000000,0.030000000,9.660000000,0.770833333,1.041666667,-1.416666667
1780394749.813611746,16.852475882,-528.753820202,167.152846317,-0.071956170,-0.003030388,0.005001821,0.479112482,0.877734030,-0.000526916,0.011684596,0.999302208,0.256408706,0.396695701,-0.000422174,-0.017750000,-0.012000000,-0.003750000,-0.085000000,0.060000000,9.690000000,-2.406250000,-0.468750000,1.062500000
1780394749.913523674,16.952387810,-528.731351525,167.187611416,-0.072326962,-0.003075529,0.004517936,0.479110548,0.877737553,-0.001069895,0.010878376,0.999292696,0.256511016,0.396920420,-0.006633951,0.008250000,-0.022500000,0.018500000,-0.075000000,0.050000000,9.670000000,1.406250000,-2.343750000,3.968750000
1780394750.013484478,17.052348614,-528.705828379,167.227112403,-0.073406776,-0.003122349,0.003968341,0.479108224,0.877741313,-0.001678784,0.009958405,0.999282474,0.252874083,0.391414020,-0.013458421,-0.009250000,-0.020500000,0.005000000,-0.035000000,0.010000000,9.670000000,-2.062500000,-0.531250000,0.468750000
1780394750.113563299,17.152427435,-528.680318829,167.266607629,-0.075175601,-0.003163566,0.003427955,0.479105766,0.877744784,-0.002268995,0.009049227,0.999272926,0.255330930,0.395390075,-0.020420443,-0.006250000,-0.005000000,0.000750000,-0.020000000,0.015000000,9.675000000,-0.156250000,-0.250000000,-1.000000000
1780394750.213562727,17.252426863,-528.656865127,167.302937659,-0.077391557,-0.003195813,0.002946778,0.479103399,0.877747707,-0.002786710,0.008235397,0.999264761,0.154870102,0.239951409,-0.016211321,0.001750000,-0.008000000,-0.000750000,-0.005000000,0.020000000,9.680000000,0.187500000,0.270833333,-0.020833333
1780394750.313690186,17.352554321,-528.632410030,167.340841148,-0.080275614,-0.003223014,0.002468636,0.479100848,0.877750474,-0.003292650,0.007422058,0.999256887,0.140319813,0.217544948,-0.017897736,-0.002500000,-0.002500000,-0.009000000,-0.005000000,0.055000000,9.720000000,0.125000000,0.656250000,-2.531250000
1780394750.413586140,17.452450275,-528.606958785,167.380316979,-0.083858541,-0.003243728,0.002004451,0.479098147,0.877753055,-0.003773818,0.006627002,0.999249386,0.226756862,0.351820458,-0.033931239,-0.000250000,-0.012750000,-0.000250000,-0.005000000,0.070000000,9.705000000,-0.375000000,0.218750000,1.093750000
1780394750.513833046,17.552697182,-528.583566538,167.416628262,-0.087630042,-0.003255420,0.001614560,0.479095665,0.877755171,-0.004167952,0.005953728,0.999243098,0.261741153,0.406425103,-0.044081327,-0.004500000,0.016250000,0.009250000,0.010000000,0.040000000,9.675000000,-0.645833333,2.166666667,0.000000000
1780394750.613738537,17.652602673,-528.568323468,167.440306142,-0.090310962,-0.003259044,0.001382238,0.479094068,0.877756425,-0.004396931,0.005549342,0.999239300,0.263502044,0.409389503,-0.047299274,-0.002500000,-0.012500000,0.016750000,-0.005000000,0.015000000,9.680000000,-0.812500000,-1.906250000,0.937500000
1780394750.713626146,17.752490282,-528.543956708,167.478185188,-0.094920125,-0.003257996,0.001050620,0.479091584,0.877758244,-0.004712855,0.004966159,0.999233695,0.252181189,0.392175400,-0.049207947,0.006750000,-0.009250000,-0.002500000,-0.005000000,-0.000000000,9.720000000,2.718750000,0.937500000,0.968750000
1780394750.813609600,17.852473736,-528.528741852,167.501856152,-0.097974907,-0.003252947,0.000870388,0.479090093,0.877759275,-0.004876691,0.004644908,0.999230465,0.251420592,0.391237175,-0.051157587,0.013250000,-0.000500000,0.004750000,0.035000000,-0.055000000,9.720000000,0.416666667,0.875000000,0.770833333
1780394750.913772106,17.952636242,-528.508473061,167.533413414,-0.102220343,-0.003240852,0.000664671,0.479088194,0.877760536,-0.005052579,0.004272164,0.999226457,0.258849658,0.403143519,-0.055078302,-0.014750000,0.003750000,-0.001000000,-0.005000000,0.005000000,9.725000000,-0.708333333,-0.625000000,0.041666667
1780394751.013508558,18.052372694,-528.488224762,167.564966222,-0.106622434,-0.003222574,0.000500489,0.479086412,0.877761684,-0.005177812,0.003966414,0.999222753,0.108000866,0.168352602,-0.023749503,0.004750000,-0.003250000,-0.017250000,0.035000000,-0.035000000,9.735000000,0.083333333,-0.291666667,-2.041666667
1780394751.113588333,18.152452469,-528.467997013,167.596514788,-0.111135350,-0.003198104,0.000379604,0.479084758,0.877762737,-0.005250689,0.003730739,0.999219313,0.254315463,0.396778911,-0.057154286,-0.003000000,0.005250000,0.012250000,0.040000000,-0.015000000,9.795000000,1.937500000,2.031250000,1.093750000
1780394751.213488102,18.252352238,-528.442740880,167.635944937,-0.116860212,-0.003158872,0.000291307,0.479082868,0.877763945,-0.005266425,0.003538127,0.999215316,0.250261567,0.390881541,-0.056925552,0.016500000,-0.007500000,0.006750000,0.020000000,-0.015000000,9.760000000,-0.375000000,-2.093750000,0.531250000
1780394751.313707590,18.352571726,-528.422558197,167.667485001,-0.121448204,-0.003120683,0.000271837,0.479081488,0.877764840,-0.005218042,0.003467348,0.999212307,0.255890574,0.400014861,-0.058070617,0.017250000,0.002500000,0.005750000,0.015000000,-0.020000000,9.730000000,1.531250000,0.812500000,1.687500000
1780394751.413605928,18.452470064,-528.402394405,167.699021853,-0.125990651,-0.003076619,0.000298101,0.479080207,0.877765687,-0.005115526,0.003471227,0.999209414,0.249619912,0.390533141,-0.055909601,-0.000000000,-0.002250000,0.007000000,0.020000000,-0.000000000,9.760000000,0.312500000,-0.333333333,0.875000000
1780394751.513684273,18.552548409,-528.382248435,167.730555894,-0.130439061,-0.003026909,0.000369799,0.479078996,0.877766493,-0.004959565,0.003549459,0.999206592,0.268945334,0.421095365,-0.058793074,0.030000000,-0.009500000,0.006750000,0.030000000,-0.030000000,9.735000000,3.656250000,0.187500000,2.375000000
1780394751.613680840,18.652544975,-528.362118977,167.762087555,-0.134745670,-0.002971839,0.000486134,0.479077821,0.877767266,-0.004751425,0.003700918,0.999203799,0.114765398,0.179821455,-0.024198824,-0.010250000,-0.003500000,-0.002250000,0.055000000,-0.010000000,9.765000000,-2.312500000,-1.937500000,0.437500000
1780394751.713587523,18.752451658,-528.342004504,167.793617299,-0.138863957,-0.002911741,0.000645829,0.479076640,0.877768009,-0.004492913,0.003923680,0.999200991,0.247776661,0.388487651,-0.049751138,-0.005000000,0.010500000,0.002000000,0.045000000,-0.005000000,9.810000000,-0.750000000,2.968750000,-2.312500000
1780394751.813644648,18.852508783,-528.316879863,167.833027513,-0.143678990,-0.002830132,0.000903735,0.479075082,0.877768899,-0.004102540,0.004298246,0.999197401,0.249642679,0.391695744,-0.046208813,0.019250000,-0.003500000,0.010750000,0.025000000,0.025000000,9.810000000,1.375000000,-1.218750000,-0.593750000
1780394751.913742542,18.952606678,-528.297796743,167.862978358,-0.147044007,-0.002763779,0.001140583,0.479073780,0.877769545,-0.003759126,0.004650463,0.999194573,0.256806358,0.403122493,-0.043913611,-0.006750000,0.013750000,-0.000500000,0.040000000,0.015000000,9.800000000,-1.812500000,2.843750000,-0.031250000
1780394752.013480186,19.052344322,-528.276714237,167.896081549,-0.150422717,-0.002686662,0.001440376,0.479072163,0.877770226,-0.003336505,0.005102870,0.999191310,0.254527391,0.399712995,-0.039043148,0.005750000,0.012250000,-0.008250000,0.025000000,-0.015000000,9.780000000,-0.750000000,1.666666667,-1.270833333
1780394752.113647461,19.152511597,-528.256642624,167.927608516,-0.153271356,-0.002610104,0.001759862,0.479070396,0.877770839,-0.002896000,0.005590387,0.999188037,0.265675876,0.417348266,-0.035822047,-0.003250000,0.001000000,0.007000000,0.010000000,0.055000000,9.850000000,-1.208333333,-0.166666667,1.562500000
1780394752.213537216,19.252401352,-528.236575589,167.959136061,-0.155727049,-0.002531129,0.002109017,0.479068356,0.877771414,-0.002422827,0.006127675,0.999184578,0.140308472,0.220455967,-0.016095752,0.002250000,0.002250000,-0.006500000,-0.035000000,0.020000000,9.845000000,-0.625000000,-2.218750000,-0.125000000
1780394752.313637733,19.352501869,-528.211494874,167.998546975,-0.158201543,-0.002429996,0.002581468,0.479065358,0.877772074,-0.001792624,0.006860188,0.999179956,0.150316137,0.236210540,-0.013183645,-0.006750000,0.001250000,-0.010750000,0.000000000,0.015000000,9.835000000,-0.218750000,-0.625000000,-2.343750000
1780394752.413499594,19.452363729,-528.191430099,168.030077402,-0.159676614,-0.002347971,0.002983312,0.479062556,0.877772553,-0.001263620,0.007487059,0.999175995,0.257374136,0.404442216,-0.016699404,0.015000000,0.003250000,0.009000000,-0.025000000,0.035000000,9.830000000,0.656250000,0.093750000,3.125000000
1780394752.513485432,19.552349567,-528.166345372,168.069493197,-0.160860041,-0.002245173,0.003508423,0.479058505,0.877773091,-0.000580045,0.008310433,0.999170689,0.225990854,0.355077454,-0.007963038,0.027250000,0.010250000,0.002750000,-0.025000000,0.055000000,9.845000000,3.281250000,0.218750000,-0.125000000
