sim_time_sec,elapsed_time_sec,global_x,global_y,global_z,global_qx,global_qy,global_qz,global_qw,roll,pitch,yaw,global_vx,global_vy,global_vz,imu_angular_velocity_x,imu_angular_velocity_y,imu_angular_velocity_z,imu_linear_acceleration_x,imu_linear_acceleration_y,imu_linear_acceleration_z,imu_angular_acceleration_x,imu_angular_acceleration_y,imu_angular_acceleration_z
1780392605.364548206,0.124025106,-532.025488290,161.996081659,-0.192356285,-0.004563890,0.000474744,0.479524563,0.877516461,-0.007554649,0.005210209,1.000217507,-0.010167900,-0.000156099,-0.093862152,0.029500000,-0.012250000,0.005000000,-0.105000000,-0.040000000,9.965000000,0.937500000,-4.000000000,-0.625000000
1780392605.464549303,0.224026203,-532.025667386,161.996710234,-0.198072804,-0.004428572,0.000997094,0.479525095,0.877516425,-0.006816200,0.005997192,1.000217716,0.001924048,0.015293025,-0.071302990,0.022250000,0.014500000,0.006750000,0.115000000,-0.065000000,9.990000000,1.250000000,0.333333333,1.666666667
1780392605.564670563,0.324147463,-532.025652766,161.996783147,-0.198349885,-0.004417355,0.001023065,0.479525119,0.877516439,-0.006771608,0.006032016,1.000217762,0.000139593,0.000696166,-0.002645553,0.032000000,-0.008500000,0.015750000,0.150000000,-0.045000000,10.015000000,0.125000000,-2.125000000,3.500000000
1780392605.664634466,0.424111366,-532.022722227,162.003997180,-0.208254678,-0.003454404,0.002312519,0.479524492,0.877518650,-0.003844903,0.007371566,1.000220793,0.046304559,0.099353508,-0.072562072,0.024500000,0.018250000,0.003000000,0.190000000,-0.010000000,10.040000000,0.208333333,0.375000000,-0.583333333
1780392605.764545918,0.524022818,-532.020006800,162.009465196,-0.211026555,-0.002968986,0.003014278,0.479522941,0.877519144,-0.002319932,0.008137656,1.000222328,0.038500913,0.075126350,-0.030354175,0.025000000,0.007250000,0.007250000,0.165000000,0.005000000,10.005000000,-0.604166667,-1.041666667,1.145833333
1780392605.864497662,0.623974562,-532.015370570,162.018034466,-0.213140099,-0.002590336,0.003981241,0.479520255,0.877517957,-0.000727995,0.009471600,1.000224744,0.053164522,0.095571489,-0.015742872,0.013500000,0.009000000,0.010000000,0.120000000,0.085000000,9.990000000,-1.250000000,-2.343750000,1.062500000
1780392605.964626789,0.724103689,-532.010701739,162.026227619,-0.213806042,-0.002464801,0.004814348,0.479517338,0.877515737,0.000291341,0.010813373,1.000226777,0.062735744,0.108944046,-0.004173614,0.017750000,0.026750000,0.008500000,0.065000000,0.045000000,10.015000000,-0.968750000,-0.437500000,0.156250000
1780392606.064489126,0.823966026,-532.006679263,162.033156605,-0.213716603,-0.002401705,0.005473716,0.479514337,0.877513687,0.001034467,0.011910107,1.000228061,0.018375629,0.031545548,0.001360654,0.044750000,0.022250000,0.012750000,0.080000000,0.030000000,10.005000000,2.531250000,0.968750000,1.062500000
1780392606.164676905,0.924153805,-532.000666521,162.043452877,-0.212780880,-0.002257898,0.006386758,0.479508780,0.877510935,0.002162548,0.013374663,1.000229249,0.079107522,0.135319707,0.016342444,0.013500000,0.034500000,0.011750000,-0.015000000,0.035000000,9.995000000,-1.718750000,0.937500000,1.593750000
1780392606.264527798,1.024004698,-531.992134444,162.058003239,-0.210198554,-0.001914322,0.007511308,0.479499259,0.877508049,0.003844111,0.015018863,1.000229711,0.090382759,0.153665165,0.032577497,0.015250000,0.014250000,0.004500000,-0.055000000,0.090000000,10.065000000,-2.500000000,-0.343750000,1.031250000
1780392606.364514351,1.123991251,-531.982447488,162.074320520,-0.205951034,-0.001477830,0.008485431,0.479488166,0.877506075,0.005544485,0.016309962,1.000228484,0.102387551,0.171239083,0.049559831,0.017000000,0.015500000,0.023750000,-0.075000000,0.115000000,10.070000000,-1.187500000,-0.656250000,2.156250000
1780392606.464613438,1.224090338,-531.973853772,162.088546822,-0.201376722,-0.001170174,0.009093231,0.479479433,0.877505224,0.006667390,0.017081695,1.000225702,0.111569361,0.183620305,0.062217272,0.015000000,0.000500000,-0.000750000,-0.060000000,0.165000000,10.040000000,-2.187500000,-1.312500000,-1.281250000
1780392606.564538002,1.324014902,-531.964545994,162.103743068,-0.195862341,-0.000934099,0.009564626,0.479471183,0.877505003,0.007533821,0.017682683,1.000221099,0.118574834,0.192831552,0.072393805,0.017000000,-0.002250000,0.003750000,-0.080000000,0.110000000,10.005000000,-0.791666667,-1.250000000,0.395833333
1780392606.664571047,1.424047947,-531.954597406,162.119862283,-0.189546628,-0.000735237,0.009965678,0.479462885,0.877505263,0.008267459,0.018195911,1.000214894,0.132460634,0.214326335,0.085766896,0.011000000,-0.006750000,0.018500000,-0.035000000,0.115000000,9.920000000,-1.291666667,-1.104166667,0.229166667
1780392606.764506578,1.523983479,-531.944084698,162.136865607,-0.182560739,-0.000523126,0.010366132,0.479453736,0.877505775,0.009023768,0.018695399,1.000207480,0.070550196,0.114115990,0.047512150,0.014500000,0.004500000,0.001250000,-0.085000000,0.120000000,9.965000000,-0.916666667,-1.520833333,-1.166666667
1780392606.864754915,1.624231815,-531.933053738,162.154708177,-0.174999388,-0.000285379,0.010795573,0.479443383,0.877506362,0.009852867,0.019221198,1.000199086,0.135372552,0.218900923,0.093643285,0.009750000,0.019000000,0.006750000,-0.120000000,0.110000000,9.945000000,-0.843750000,0.781250000,-0.562500000
1780392606.964618683,1.724095583,-531.918543291,162.178109875,-0.164824826,-0.000014615,0.011332440,0.479429471,0.877507241,0.010842922,0.019903925,1.000187042,0.150831892,0.242637997,0.106522837,0.022500000,0.005250000,0.001500000,-0.095000000,0.175000000,9.985000000,-1.270833333,-0.687500000,0.041666667
1780392607.064632416,1.824109316,-531.903839145,162.201641232,-0.154375559,0.000131800,0.011753243,0.479416735,0.877508654,0.011503386,0.020502207,1.000173348,0.127102081,0.202658781,0.090574648,-0.003750000,-0.004000000,0.011500000,-0.135000000,0.195000000,9.960000000,-0.687500000,-1.104166667,-0.187500000
1780392607.164666414,1.924143314,-531.891015053,162.222010607,-0.145232320,0.000162451,0.011980380,0.479407484,0.877510631,0.011774908,0.020871576,1.000160171,0.170982233,0.271031575,0.121852578,0.011000000,0.003750000,-0.001500000,-0.130000000,0.205000000,9.915000000,-0.770833333,-0.437500000,0.104166667
1780392607.264506578,2.023983479,-531.874316555,162.248424121,-0.133385254,0.000166628,0.012099175,0.479397682,0.877514356,0.011895992,0.021076198,1.000141875,0.173636920,0.274466037,0.122658776,0.010000000,-0.009750000,0.005000000,-0.155000000,0.170000000,9.860000000,0.718750000,-1.875000000,0.500000000
1780392607.364593029,2.124069929,-531.859075159,162.272520315,-0.122722608,0.000217551,0.012076453,0.479390177,0.877518758,0.011963395,0.020987585,1.000124661,0.177014628,0.279918651,0.122939632,0.019750000,0.001000000,-0.006000000,-0.210000000,0.220000000,9.915000000,-1.031250000,0.062500000,-2.062500000
1780392607.464697123,2.224174023,-531.844811300,162.295076297,-0.112958195,0.000309995,0.011967555,0.479384092,0.877523546,0.012021033,0.020707889,1.000108312,0.186692041,0.295156415,0.126562320,0.004500000,-0.015000000,0.022750000,-0.180000000,0.170000000,9.870000000,-0.156250000,-1.968750000,2.593750000
1780392607.564668894,2.324145794,-531.830169135,162.318194556,-0.103230161,0.000398843,0.011775131,0.479378914,0.877528942,0.011992246,0.020285034,1.000091215,0.154384554,0.243491918,0.101220019,-0.008750000,-0.013750000,0.030750000,-0.205000000,0.175000000,9.855000000,-4.125000000,-1.906250000,5.875000000
1780392607.664644241,2.424121141,-531.811343954,162.347796987,-0.091275802,0.000421205,0.011416975,0.479374053,0.877536320,0.011687767,0.019635053,1.000068720,0.072320757,0.113452820,0.044698491,0.000250000,0.004500000,-0.002250000,-0.135000000,0.215000000,9.855000000,-1.062500000,1.000000000,0.562500000
1780392607.764577150,2.524054050,-531.795890529,162.371993819,-0.082005267,0.000345796,0.011051651,0.479371325,0.877542520,0.011204862,0.019066213,1.000050058,0.200026725,0.312853450,0.117452632,0.001750000,-0.012000000,0.009000000,-0.160000000,0.180000000,9.775000000,0.593750000,-2.062500000,0.812500000
1780392607.864675760,2.624152660,-531.773741032,162.406600459,-0.069676999,0.000160774,0.010469940,0.479368330,0.877551342,0.010321987,0.018222689,1.000023572,0.197717221,0.308849231,0.105693574,0.004500000,-0.005000000,0.025500000,-0.135000000,0.140000000,9.800000000,0.687500000,0.354166667,2.270833333
1780392607.964629412,2.724106312,-531.755967694,162.434373430,-0.060667634,0.000013761,0.009977830,0.479366075,0.877558322,0.009591833,0.017499956,1.000002800,0.206764590,0.323170029,0.101147397,0.010750000,-0.012250000,0.005000000,-0.145000000,0.100000000,9.800000000,0.250000000,-1.656250000,-0.937500000
1780392608.064575672,2.824052572,-531.737886130,162.462633314,-0.052353008,-0.000120565,0.009441758,0.479363917,0.877565424,0.008841814,0.016687884,0.999982049,0.202147143,0.315855607,0.088959981,-0.001000000,-0.011750000,0.010750000,-0.150000000,0.145000000,9.720000000,-0.093750000,0.062500000,1.281250000
1780392608.164559841,2.924036741,-531.718648171,162.492658687,-0.044474816,-0.000279779,0.008799908,0.479362175,0.877573011,0.007946698,0.015714000,0.999960379,0.205783084,0.320867844,0.080060208,-0.000500000,0.007500000,0.018250000,-0.165000000,0.140000000,9.730000000,-0.458333333,0.958333333,0.958333333
1780392608.264560938,3.024037838,-531.699928279,162.521799631,-0.037781308,-0.000479598,0.008088737,0.479361156,0.877580324,0.006913879,0.014657360,0.999939810,0.219332819,0.341092859,0.074055438,0.004250000,-0.006000000,-0.006250000,-0.135000000,0.170000000,9.785000000,0.593750000,0.468750000,-1.625000000
1780392608.364621162,3.124098063,-531.681792043,162.549973623,-0.032225922,-0.000708875,0.007334270,0.479360482,0.877587166,0.005787883,0.013552950,0.999920620,0.170394874,0.264573712,0.048674719,-0.015500000,-0.016250000,0.001500000,-0.155000000,0.115000000,9.760000000,-0.812500000,-2.125000000,-1.000000000
1780392608.464772701,3.224249601,-531.664310825,162.577114269,-0.027757451,-0.000936048,0.006578947,0.479359632,0.877593405,0.004664802,0.012445009,0.999902949,0.219667115,0.341078394,0.051991117,-0.009750000,-0.020750000,0.001250000,-0.095000000,0.075000000,9.705000000,0.208333333,-1.000000000,-1.645833333
1780392608.564507484,3.323984385,-531.645769389,162.605917571,-0.023994332,-0.001161515,0.005780929,0.479358139,0.877599571,0.003503809,0.011260484,0.999885119,0.060740854,0.094395349,0.010817811,0.001250000,0.001250000,0.006750000,-0.070000000,0.075000000,9.735000000,0.750000000,1.020833333,1.250000000
1780392608.664720774,3.424197674,-531.627950541,162.633617684,-0.021342178,-0.001366123,0.005033117,0.479356075,0.877605011,0.002427606,0.010144070,0.999868865,0.229005127,0.356040937,0.029517124,0.004000000,-0.022500000,0.013250000,-0.110000000,0.055000000,9.755000000,1.281250000,-0.437500000,1.500000000
1780392608.764559507,3.524036407,-531.605462163,162.668572249,-0.019342417,-0.001640687,0.004115343,0.479352812,0.877611106,0.001065673,0.008796390,0.999849670,0.225508552,0.350398700,0.014094368,-0.008000000,0.003750000,-0.005500000,-0.110000000,0.095000000,9.730000000,-0.781250000,0.968750000,-1.281250000
1780392608.864551783,3.624028683,-531.591855485,162.689704635,-0.018847647,-0.001829785,0.003569731,0.479350613,0.877614322,0.000210621,0.008019997,0.999838884,0.219343387,0.340577714,0.005133530,0.007500000,-0.001250000,0.000750000,-0.105000000,0.050000000,9.690000000,2.968750000,2.093750000,0.781250000
1780392608.964658260,3.724135160,-531.573588217,162.718056439,-0.019003185,-0.002109636,0.002848166,0.479347436,0.877618068,-0.000972411,0.007021758,0.999825458,0.234083954,0.363251345,-0.006418963,-0.003500000,-0.010250000,0.011500000,-0.085000000,0.015000000,9.690000000,-0.125000000,1.854166667,0.604166667
1780392609.064824104,3.824301004,-531.557038850,162.743741048,-0.019928289,-0.002372426,0.002210925,0.479344308,0.877620942,-0.002044632,0.006155165,0.999814332,0.158747887,0.246429310,-0.011785665,-0.020250000,-0.031000000,-0.002250000,-0.050000000,-0.000000000,9.720000000,-0.750000000,-1.687500000,-1.593750000
1780392609.164495230,3.923972130,-531.536694042,162.775346917,-0.022048339,-0.002678129,0.001460786,0.479340093,0.877623934,-0.003300402,0.005131533,0.999801891,0.220375311,0.342562447,-0.027394252,-0.007000000,-0.008750000,-0.005500000,-0.085000000,-0.020000000,9.725000000,-0.281250000,1.875000000,-2.781250000
1780392609.264653444,4.024130344,-531.518102054,162.804276403,-0.024895416,-0.002925746,0.000815072,0.479335937,0.877626250,-0.004354090,0.004235500,0.999791622,0.230055819,0.358181018,-0.039145820,0.004250000,-0.016000000,0.009750000,-0.075000000,0.010000000,9.740000000,2.781250000,0.593750000,0.062500000
1780392609.364528894,4.124005795,-531.499424782,162.833379233,-0.028586917,-0.003149794,0.000206010,0.479331620,0.877628187,-0.005331257,0.003381199,0.999782396,0.228398607,0.356035743,-0.048834161,-0.008250000,-0.013000000,0.003500000,-0.065000000,0.010000000,9.720000000,-0.187500000,-3.562500000,0.218750000
1780392609.464540482,4.224017382,-531.480664391,162.862637551,-0.033083484,-0.003367491,-0.000366731,0.479327331,0.877629669,-0.006262451,0.002584556,0.999774367,0.250673568,0.391036795,-0.063880277,-0.008750000,-0.016250000,0.002000000,-0.045000000,-0.065000000,9.765000000,-1.281250000,-0.687500000,-0.812500000
1780392609.564651966,4.324128866,-531.463713121,162.889089659,-0.037779611,-0.003568869,-0.000847845,0.479323632,0.877630560,-0.007077154,0.001933097,0.999768273,0.163933169,0.255876530,-0.047725668,-0.012000000,-0.008000000,0.007500000,-0.005000000,-0.010000000,9.725000000,-1.812500000,0.968750000,1.093750000
1780392609.664696217,4.424173117,-531.442921932,162.921562591,-0.044295443,-0.003820286,-0.001378959,0.479319455,0.877631109,-0.008027621,0.001241841,0.999762269,0.235249032,0.367620734,-0.077181657,0.001500000,-0.000000000,0.008750000,-0.045000000,-0.055000000,9.770000000,1.812500000,-0.031250000,1.531250000
1780392609.764571667,4.524048567,-531.423968305,162.951214385,-0.050897830,-0.004039370,-0.001791214,0.479316086,0.877631224,-0.008807386,0.000728219,0.999758024,0.246537940,0.385984233,-0.088774575,0.016500000,-0.016000000,-0.001500000,-0.005000000,-0.065000000,9.750000000,0.687500000,-0.604166667,-0.562500000
1780392609.864533186,4.624010086,-531.404979076,162.980987504,-0.058079978,-0.004234657,-0.002124151,0.479313226,0.877631123,-0.009469343,0.000331013,0.999754740,0.242598320,0.380708537,-0.094282685,-0.005250000,-0.000250000,0.023000000,-0.000000000,-0.085000000,9.785000000,-1.437500000,-0.281250000,2.500000000
1780392609.964501619,4.723978519,-531.385960543,163.010876683,-0.065769903,-0.004402122,-0.002375641,0.479310975,0.877630883,-0.010004384,0.000050099,0.999752335,0.242977336,0.382175448,-0.100403577,0.004500000,-0.001000000,-0.003000000,0.005000000,-0.085000000,9.745000000,0.125000000,1.000000000,-0.937500000
1780392610.064561367,4.824038267,-531.366911898,163.040874116,-0.073887554,-0.004548593,-0.002552108,0.479309424,0.877630488,-0.010430656,-0.000119249,0.999750863,0.042209446,0.066524431,-0.018364435,0.017250000,0.001750000,0.020250000,-0.025000000,-0.090000000,9.800000000,0.916666667,0.812500000,2.625000000
1780392610.164647341,4.924124241,-531.347830521,163.070971800,-0.082345940,-0.004683265,-0.002662147,0.479308630,0.877629886,-0.010772534,-0.000183301,0.999750412,0.238377575,0.376206654,-0.106947681,0.006500000,0.006750000,0.017500000,0.000000000,-0.105000000,9.850000000,-0.687500000,2.625000000,3.250000000
1780392610.264506817,5.023983717,-531.323935075,163.108726810,-0.093259733,-0.004837022,-0.002711623,0.479308716,0.877628854,-0.011089857,-0.000122744,0.999751247,0.241416216,0.381751455,-0.111329235,0.019250000,-0.000500000,0.009250000,-0.020000000,-0.070000000,9.800000000,1.229166667,-1.666666667,0.354166667
1780392610.364504099,5.123980999,-531.300961577,163.145106790,-0.103940465,-0.004954799,-0.002660815,0.479309873,0.877627721,-0.011247885,0.000079358,0.999753237,0.253517601,0.401865103,-0.118278582,0.021750000,-0.000500000,0.009500000,0.040000000,-0.090000000,9.850000000,1.437500000,-0.375000000,0.218750000
1780392610.464759111,5.224236012,-531.285634467,163.169432047,-0.111095943,-0.005008016,-0.002568005,0.479311171,0.877626986,-0.011252324,0.000293295,0.999755015,0.240545372,0.382005674,-0.112260661,-0.004750000,0.000000000,0.012500000,-0.050000000,-0.095000000,9.845000000,-1.406250000,0.906250000,0.531250000
1780392610.564508200,5.323985100,-531.261672486,163.207549143,-0.122215394,-0.005047648,-0.002325219,0.479313930,0.877625929,-0.011089143,0.000757471,0.999758323,0.231084767,0.367977530,-0.106616008,0.027500000,0.001000000,-0.005250000,-0.015000000,-0.135000000,9.845000000,-0.125000000,-0.218750000,-3.937500000
1780392610.664662361,5.424139261,-531.242488743,163.238130014,-0.130962294,-0.005049787,-0.002049130,0.479316670,0.877625108,-0.010828223,0.001244158,0.999761383,0.241397236,0.385037299,-0.109147597,0.009750000,0.013250000,0.004250000,-0.035000000,-0.075000000,9.880000000,-0.531250000,1.750000000,-0.093750000
1780392610.764578581,5.524055481,-531.223287722,163.268780283,-0.139486657,-0.005036624,-0.001707292,0.479319766,0.877624224,-0.010477413,0.001831587,0.999764806,0.140563125,0.224475579,-0.061635380,0.015500000,0.003000000,0.009500000,-0.035000000,-0.095000000,9.890000000,0.604166667,0.229166667,0.812500000
1780392610.864625454,5.624102354,-531.204066948,163.299495200,-0.147704986,-0.005012373,-0.001305130,0.479323082,0.877623242,-0.010049308,0.002514270,0.999768530,0.201480655,0.322093169,-0.084723076,0.006250000,0.000500000,-0.019500000,-0.080000000,-0.025000000,9.910000000,-1.125000000,-1.906250000,-3.843750000
1780392610.964511871,5.723988771,-531.180977206,163.336436696,-0.157048222,-0.004962179,-0.000746728,0.479327108,0.877621982,-0.009425885,0.003446331,0.999773195,0.248213403,0.397339689,-0.097676023,0.012750000,0.023250000,0.013750000,-0.045000000,-0.075000000,9.955000000,-0.583333333,0.729166667,-0.291666667
1780392611.064489365,5.823966265,-531.157863316,163.373469816,-0.165700425,-0.004875801,-0.000109412,0.479330859,0.877620728,-0.008663294,0.004482214,0.999777808,0.235319266,0.377243094,-0.084968412,0.008000000,0.032000000,0.005000000,-0.045000000,-0.030000000,9.905000000,-0.854166667,2.125000000,-0.791666667
1780392611.164502144,5.923979044,-531.136652795,163.407495443,-0.172921909,-0.004760158,0.000535952,0.479333770,0.877619616,-0.007841616,0.005504160,0.999781819,0.240372087,0.385740390,-0.078599040,0.015500000,0.011000000,0.007500000,-0.110000000,-0.035000000,9.990000000,2.656250000,-1.375000000,-1.625000000
1780392611.264508963,6.023985863,-531.114447528,163.443142046,-0.179654496,-0.004609332,0.001259049,0.479336045,0.877618439,-0.006883659,0.006628816,0.999785706,0.234517519,0.376527745,-0.067406403,0.015750000,0.011000000,-0.011000000,-0.080000000,-0.030000000,9.990000000,-1.687500000,-1.468750000,-1.156250000
1780392611.364624739,6.124101639,-531.093170470,163.477302750,-0.185238936,-0.004447251,0.001983079,0.479337317,0.877617244,-0.005905052,0.007744313,0.999789034,0.237045595,0.380559222,-0.058406534,0.031250000,0.014500000,0.000250000,-0.110000000,-0.015000000,10.010000000,2.031250000,-1.031250000,-0.531250000
1780392611.464519978,6.223996878,-531.077670917,163.502183040,-0.188739383,-0.004321758,0.002523907,0.479337616,0.877616318,-0.005166296,0.008573311,0.999791165,0.109522328,0.175792019,-0.023321722,0.009500000,0.006750000,0.009500000,-0.095000000,0.010000000,9.980000000,-1.750000000,-1.656250000,-0.031250000
1780392611.564503908,6.323980808,-531.054381676,163.539557801,-0.193057160,-0.004119657,0.003353059,0.479336950,0.877614878,-0.004016659,0.009834956,0.999793772,0.147534141,0.236735126,-0.024304035,0.009500000,0.014000000,0.002500000,-0.150000000,0.040000000,9.980000000,-0.750000000,-0.458333333,0.229166667
1780392611.664519310,6.423996210,-531.034938684,163.570751720,-0.195767616,-0.003934624,0.004057331,0.479335269,0.877613672,-0.003016699,0.010893762,0.999795297,0.241949969,0.388139726,-0.029873090,0.036000000,0.011750000,0.002000000,-0.170000000,-0.005000000,9.945000000,0.125000000,0.906250000,-1.437500000
1780392611.764626741,6.524103642,-531.012538871,163.606676103,-0.197858467,-0.003702382,0.004875040,0.479331996,0.877612309,-0.001825122,0.012106426,0.999796243,0.219343097,0.351694360,-0.015971966,0.034750000,-0.003250000,-0.000750000,-0.155000000,-0.005000000,9.995000000,0.343750000,-2.906250000,-0.562500000
1780392611.864715338,6.624192238,-530.992045068,163.639520385,-0.198794661,-0.003477704,0.005618003,0.479327761,0.877611099,-0.000718477,0.013195147,0.999796276,0.247863203,0.397097359,-0.007020233,0.011250000,0.020750000,0.008750000,-0.175000000,0.010000000,10.010000000,-0.625000000,0.250000000,-1.750000000
1780392611.964557886,6.724034786,-530.966609124,163.680235974,-0.198662482,-0.003194332,0.006514251,0.479321014,0.877609666,0.000638149,0.014496668,0.999795172,0.309441149,0.495029409,0.008265038,0.017500000,0.036000000,0.018000000,-0.200000000,0.015000000,9.985000000,-0.437500000,2.750000000,0.906250000
1780392612.064524889,6.824001789,-530.946992828,163.711590851,-0.197596275,-0.002976863,0.007174438,0.479314811,0.877608670,0.001652785,0.015447022,0.999793381,0.152355736,0.243395116,0.011010382,0.013750000,0.010000000,0.010250000,-0.215000000,0.095000000,9.990000000,-1.000000000,-1.468750000,0.312500000
1780392612.164592505,6.924069405,-530.927333407,163.742975029,-0.195707339,-0.002758860,0.007802608,0.479307842,0.877607829,0.002637664,0.016340673,0.999790739,0.269639097,0.430254899,0.030052493,0.015250000,0.020750000,-0.013000000,-0.175000000,0.040000000,9.980000000,-0.416666667,-1.145833333,-1.395833333
1780392612.264516830,7.023993731,-530.900727899,163.785388562,-0.191895479,-0.002459746,0.008592311,0.479297397,0.877607046,0.003919771,0.017440129,0.999785786,0.243482911,0.387902517,0.040096395,0.018250000,0.022500000,-0.002750000,-0.240000000,0.060000000,9.975000000,0.250000000,2.000000000,0.312500000
1780392612.364579201,7.124056101,-530.878995119,163.819982783,-0.187770478,-0.002213190,0.009178676,0.479288224,0.877606775,0.004914678,0.018233059,0.999780568,0.241879938,0.384810911,0.049645882,0.038750000,0.008000000,-0.007250000,-0.230000000,0.090000000,9.990000000,3.437500000,-0.687500000,-1.968750000
1780392612.464704990,7.224181890,-530.860185934,163.849881306,-0.183519097,-0.002003389,0.009637075,0.479280022,0.877606845,0.005722386,0.018836609,0.999775193,0.248554858,0.394892784,0.059116302,0.019750000,0.020000000,0.003000000,-0.275000000,0.075000000,9.965000000,-0.468750000,0.250000000,-0.906250000
1780392612.564671040,7.324147940,-530.838359469,163.884521567,-0.177859034,-0.001770847,0.010105119,0.479270424,0.877607322,0.006579242,0.019435306,0.999767928,0.254374328,0.403438887,0.069285097,0.006000000,0.009750000,0.017750000,-0.260000000,0.100000000,9.950000000,-2.406250000,0.187500000,2.500000000
1780392612.664725542,7.424202442,-530.823448918,163.908151131,-0.173582743,-0.001620960,0.010382718,0.479263946,0.877607909,0.007108440,0.019778936,0.999762358,0.241517616,0.382594381,0.070959250,0.025250000,0.007000000,0.007500000,-0.230000000,0.135000000,9.960000000,-1.562500000,0.625000000,0.781250000
1780392612.764617682,7.524094582,-530.803533430,163.939670160,-0.167405699,-0.001432162,0.010698423,0.479255504,0.877609055,0.007742450,0.020152173,0.999754156,0.258606634,0.409055090,0.082639617,0.010500000,0.011500000,0.002000000,-0.265000000,0.105000000,9.935000000,-1.531250000,0.812500000,-0.312500000
1780392612.864868402,7.624345303,-530.785577727,163.968049437,-0.161431233,-0.001271816,0.010928375,0.479248191,0.877610463,0.008244299,0.020402158,0.999746056,0.264393117,0.417696180,0.089850898,-0.005500000,-0.006500000,0.007500000,-0.270000000,0.170000000,9.950000000,-2.000000000,0.156250000,-0.281250000
1780392612.964581013,7.724057913,-530.763593674,164.002749943,-0.153671216,-0.001087136,0.011138153,0.479239739,0.877612689,0.008769495,0.020593422,0.999735281,0.253664155,0.400172746,0.091492234,0.025250000,0.001750000,0.014000000,-0.250000000,0.165000000,9.895000000,0.520833333,0.125000000,-0.958333333
1780392613.064514637,7.823991537,-530.744574771,164.032730100,-0.146634030,-0.000939056,0.011254071,0.479232983,0.877615070,0.009140462,0.020655007,0.999725241,0.257169662,0.405197750,0.096444241,-0.000250000,-0.010000000,0.005000000,-0.285000000,0.115000000,9.905000000,-2.812500000,-1.937500000,-1.343750000
1780392613.164601088,7.924077988,-530.728535507,164.057983371,-0.140517554,-0.000824817,0.011303012,0.479227757,0.877617410,0.009387823,0.020631455,0.999716269,0.257253550,0.404883580,0.098879589,0.014250000,0.003750000,0.015500000,-0.245000000,0.180000000,9.915000000,-0.312500000,0.687500000,-0.187500000
1780392613.264830828,8.024307728,-530.710466021,164.086399224,-0.133481442,-0.000710110,0.011303580,0.479222444,0.877620404,0.009589610,0.020522548,0.999705631,0.199277917,0.313227946,0.078118940,-0.001000000,0.003250000,0.003500000,-0.290000000,0.175000000,9.870000000,-1.468750000,1.812500000,1.718750000
1780392613.364681244,8.124158144,-530.689352390,164.119557385,-0.125140060,-0.000596525,0.011231202,0.479217059,0.877624358,0.009719470,0.020286674,0.999692574,0.264343675,0.414918789,0.104812365,0.000250000,0.001750000,0.012000000,-0.270000000,0.160000000,9.890000000,-0.125000000,0.250000000,1.479166667
1780392613.464590788,8.224067688,-530.668206450,164.152721163,-0.116744579,-0.000504272,0.011082356,0.479212536,0.877628778,0.009738570,0.019937017,0.999678888,0.242457515,0.380069383,0.096207062,0.014000000,0.004250000,0.004750000,-0.265000000,0.125000000,9.895000000,-0.187500000,1.375000000,0.000000000
1780392613.564775467,8.324252367,-530.648040655,164.184310124,-0.108783607,-0.000434672,0.010873038,0.479208978,0.877633377,0.009659936,0.019502916,0.999665353,0.251769453,0.394227293,0.098965123,0.024750000,0.003500000,-0.006750000,-0.295000000,0.140000000,9.870000000,0.937500000,-1.343750000,-0.531250000
1780392613.664521217,8.423998117,-530.632900735,164.208004060,-0.102883775,-0.000393684,0.010674941,0.479206750,0.877637044,0.009541873,0.019115924,0.999654928,0.114563475,0.179245592,0.044422502,0.001500000,-0.004250000,0.008000000,-0.235000000,0.120000000,9.820000000,0.062500000,0.187500000,-0.656250000
1780392613.764643908,8.524120808,-530.607639841,164.247496311,-0.093283037,-0.000347980,0.010270135,0.479203806,0.877643501,0.009233859,0.018361574,0.999637145,0.137113228,0.214248043,0.051302872,0.003000000,-0.011750000,0.008250000,-0.215000000,0.145000000,9.780000000,-1.343750000,-2.031250000,0.812500000
1780392613.864553928,8.624030828,-530.587407128,164.279090214,-0.085896319,-0.000333973,0.009882127,0.479202060,0.877648915,0.008886354,0.017667077,0.999622613,0.253613615,0.395868344,0.091099096,0.025500000,-0.003000000,0.008750000,-0.240000000,0.150000000,9.815000000,1.156250000,-0.562500000,-0.906250000
1780392613.964504719,8.723981619,-530.567154228,164.310682601,-0.078848846,-0.000341483,0.009440623,0.479200761,0.877654481,0.008449807,0.016899291,0.999607897,0.247261575,0.385556199,0.084273151,0.002250000,-0.009500000,0.006500000,-0.265000000,0.155000000,9.800000000,1.687500000,0.031250000,0.625000000
1780392614.064595938,8.824072838,-530.541812726,164.350169739,-0.070619110,-0.000380120,0.008820687,0.479199587,0.877661556,0.007787563,0.015848125,0.999589366,0.253182589,0.394333282,0.079350812,0.004250000,0.010750000,0.005500000,-0.180000000,0.135000000,9.775000000,0.093750000,1.343750000,-0.187500000
1780392614.164647818,8.924124718,-530.526596335,164.373860010,-0.066037234,-0.000417343,0.008416828,0.479199029,0.877665810,0.007335006,0.015174888,0.999578254,0.270835005,0.421581065,0.079840430,0.001750000,-0.022500000,0.007750000,-0.210000000,0.145000000,9.755000000,-0.437500000,-0.916666667,0.687500000
1780392614.264665127,9.024142027,-530.506296770,164.405444358,-0.060393381,-0.000481447,0.007846702,0.479198329,0.877671441,0.006675874,0.014235551,0.999563492,0.078055235,0.121412687,0.020725874,0.005000000,0.005000000,0.001750000,-0.170000000,0.125000000,9.815000000,1.458333333,1.291666667,-0.541666667
1780392614.364760160,9.124237061,-530.485986631,164.437024947,-0.055328547,-0.000561209,0.007246025,0.479197581,0.877676967,0.005959993,0.013257587,0.999548871,0.255220128,0.396757116,0.060774895,0.006750000,-0.012000000,0.001250000,-0.195000000,0.080000000,9.765000000,1.593750000,1.937500000,-0.968750000
1780392614.464496851,9.223973751,-530.460586678,164.476493616,-0.049881041,-0.000683234,0.006461138,0.479196428,0.877683639,0.004993362,0.011996765,0.999530898,0.245901742,0.381995318,0.048763250,0.002000000,0.002500000,0.028000000,-0.175000000,0.075000000,9.720000000,-0.343750000,1.968750000,2.906250000
1780392614.564582825,9.324059725,-530.436192895,164.514374215,-0.045639652,-0.000824209,0.005682320,0.479194966,0.877689704,0.003999320,0.010764749,0.999514091,0.264888060,0.411245909,0.041742255,-0.012000000,0.000750000,-0.004000000,-0.175000000,0.075000000,9.770000000,-0.687500000,1.750000000,-0.281250000
1780392614.664551497,9.424028397,-530.414843780,164.547511308,-0.042764266,-0.000965405,0.004989913,0.479193303,0.877694678,0.003087753,0.009684623,0.999499832,0.262157030,0.406854511,0.031574575,0.010750000,-0.022250000,0.020500000,-0.150000000,0.105000000,9.755000000,0.281250000,-1.375000000,2.437500000
1780392614.764560699,9.524037600,-530.394510816,164.579062988,-0.040775311,-0.001112848,0.004329285,0.479191333,0.877699086,0.002195705,0.008666261,0.999486710,0.251811348,0.390724337,0.021191940,-0.006750000,-0.015500000,0.003750000,-0.120000000,0.060000000,9.705000000,-1.531250000,0.781250000,1.281250000
1780392614.864691019,9.624167919,-530.374180645,164.610607440,-0.039531403,-0.001270349,0.003675071,0.479188955,0.877703153,0.001292167,0.007668792,0.999474079,0.261764394,0.406153406,0.012396894,-0.007000000,-0.012500000,-0.004500000,-0.140000000,0.050000000,9.710000000,0.937500000,-1.312500000,0.250000000
1780392614.964542150,9.724019051,-530.352840025,164.643721255,-0.039033310,-0.001444588,0.003002498,0.479186028,0.877707041,0.000341668,0.006655130,0.999461396,0.115613337,0.179404690,0.000670055,-0.011250000,-0.009250000,-0.003000000,-0.115000000,-0.020000000,9.740000000,-1.125000000,-3.156250000,-0.781250000
1780392615.064661264,9.824138165,-530.328461669,164.681555362,-0.039473940,-0.001653500,0.002260715,0.479182182,0.877710995,-0.000736014,0.005553193,0.999447675,0.152584134,0.236830224,-0.005547345,0.004750000,-0.007000000,0.010750000,-0.085000000,0.030000000,9.745000000,2.375000000,0.093750000,-1.093750000
1780392615.164575815,9.924052715,-530.304098621,164.719378263,-0.040973864,-0.001871575,0.001557026,0.479177898,0.877714427,-0.001793251,0.004526898,0.999434851,0.255627853,0.396924368,-0.020071744,-0.000500000,-0.022000000,0.004250000,-0.060000000,0.035000000,9.720000000,0.843750000,-1.093750000,0.312500000
1780392615.264598131,10.024075031,-530.283810947,164.750889039,-0.043009391,-0.002058392,0.001006968,0.479174078,0.877716898,-0.002648367,0.003740330,0.999424882,0.249443804,0.387513602,-0.028254896,-0.005750000,-0.006000000,-0.004000000,-0.110000000,0.040000000,9.780000000,-1.416666667,-0.958333333,-1.895833333
1780392615.364647627,10.124124527,-530.256449432,164.793417747,-0.046838951,-0.002313426,0.000327930,0.479168706,0.877719711,-0.003746835,0.002792707,0.999412478,0.260369126,0.404860921,-0.041117567,-0.004500000,0.006000000,-0.006750000,-0.085000000,0.020000000,9.775000000,0.000000000,1.500000000,-1.312500000
1780392615.464692831,10.224169731,-530.237216837,164.823338791,-0.050236847,-0.002491964,-0.000099534,0.479164894,0.877721359,-0.004469912,0.002213398,0.999404492,0.253905373,0.395133809,-0.047581444,0.004000000,-0.003000000,0.001000000,-0.055000000,-0.030000000,9.745000000,1.562500000,-0.166666667,-0.270833333
1780392615.564522505,10.323999405,-530.211941631,164.862701309,-0.055524231,-0.002722976,-0.000591112,0.479159985,0.877723160,-0.005346544,0.001571817,0.999394892,0.248692596,0.387496920,-0.055521253,0.008250000,0.002750000,0.012750000,-0.030000000,-0.025000000,9.750000000,-0.895833333,0.125000000,-0.645833333
1780392615.664722443,10.424199343,-530.187712846,164.900482490,-0.061391774,-0.002939052,-0.000981401,0.479155555,0.877724531,-0.006099885,0.001093727,0.999386669,0.257425178,0.401625177,-0.065406238,0.006250000,0.007500000,-0.007000000,-0.015000000,-0.040000000,9.810000000,-0.093750000,1.625000000,-0.875000000
1780392615.764572620,10.524049520,-530.165535292,164.935110450,-0.067370121,-0.003130768,-0.001264659,0.479151874,0.877725516,-0.006707889,0.000780180,0.999379981,0.256604920,0.400866562,-0.071561308,0.009250000,-0.000500000,0.005250000,-0.060000000,-0.070000000,9.810000000,-0.104166667,-0.770833333,1.333333333
1780392615.864700556,10.624177456,-530.142384047,164.971309084,-0.074144914,-0.003322278,-0.001480958,0.479148506,0.877726312,-0.007251365,0.000583978,0.999373807,0.197141347,0.308435345,-0.059415092,0.014250000,0.003500000,-0.005250000,-0.020000000,-0.040000000,9.805000000,0.500000000,0.416666667,-0.250000000
1780392615.964658022,10.724134922,-530.119269205,165.007506340,-0.081360358,-0.003501687,-0.001612804,0.479145715,0.877726906,-0.007692663,0.000524434,0.999368437,0.248905453,0.390021309,-0.079351012,0.012000000,0.006000000,0.007750000,-0.075000000,-0.055000000,9.800000000,1.125000000,0.645833333,1.041666667
1780392616.064614058,10.824090958,-530.096191169,165.043704250,-0.088914305,-0.003666389,-0.001658620,0.479143550,0.877727329,-0.008025701,0.000601821,0.999363833,0.248560382,0.390114516,-0.082574064,0.014000000,0.017750000,0.004500000,-0.030000000,-0.070000000,9.805000000,1.937500000,0.812500000,-0.062500000
1780392616.164524794,10.924001694,-530.073149089,165.079904559,-0.096701008,-0.003814841,-0.001618480,0.479142018,0.877727608,-0.008247842,0.000814532,0.999359933,0.252390411,0.396769559,-0.086066605,0.004250000,-0.002750000,-0.004500000,-0.035000000,-0.055000000,9.870000000,-0.208333333,-0.979166667,-1.604166667
1780392616.264668226,11.024145126,-530.055140048,165.108237917,-0.102887598,-0.003919170,-0.001528059,0.479141240,0.877727735,-0.008344342,0.001073233,0.999357326,0.272677544,0.429189276,-0.093965639,0.004500000,0.001500000,0.021750000,-0.015000000,-0.065000000,9.840000000,-0.500000000,-0.916666667,2.000000000
1780392616.364578962,11.124055862,-530.033155806,165.142872070,-0.110477189,-0.004032023,-0.001349049,0.479140764,0.877727777,-0.008370914,0.001495618,0.999354667,0.253286837,0.399254635,-0.087400224,0.016750000,-0.002500000,0.009500000,-0.020000000,-0.025000000,9.875000000,1.718750000,-2.062500000,1.000000000
1780392616.464524746,11.224001646,-530.016186800,165.169639101,-0.116307346,-0.004107484,-0.001160637,0.479140694,0.877727735,-0.008322834,0.001898681,0.999352944,0.248264663,0.391763594,-0.085021702,0.009000000,0.019500000,0.006500000,-0.050000000,-0.055000000,9.895000000,0.281250000,0.437500000,0.687500000
1780392616.564601898,11.324078798,-530.001226817,165.193260858,-0.121388864,-0.004165053,-0.000959409,0.479140816,0.877727640,-0.008231063,0.002307095,0.999351655,0.102539458,0.161959457,-0.034664532,0.014250000,0.002250000,0.015000000,-0.075000000,-0.055000000,9.880000000,1.020833333,-0.770833333,1.625000000
1780392616.664716005,11.424192905,-529.977313125,165.231064285,-0.129322455,-0.004238613,-0.000572401,0.479141257,0.877727385,-0.007989338,0.003056969,0.999349957,0.194812913,0.308140874,-0.063646421,0.000500000,0.004250000,0.014000000,-0.060000000,-0.085000000,9.900000000,-1.531250000,1.062500000,0.000000000
1780392616.764503479,11.523980379,-529.961384011,165.256273196,-0.134428452,-0.004274664,-0.000272567,0.479141648,0.877727141,-0.007765303,0.003617868,0.999349042,0.257512725,0.407648353,-0.081614135,0.003250000,0.023000000,-0.004500000,-0.110000000,-0.025000000,9.920000000,-1.312500000,0.875000000,-0.156250000
1780392616.864532232,11.624009132,-529.941484937,165.287792504,-0.140548021,-0.004305162,0.000145414,0.479142149,0.877726749,-0.007418302,0.004380850,0.999348094,0.234833035,0.372092847,-0.070802256,0.016750000,0.023750000,0.009750000,-0.070000000,-0.040000000,9.945000000,-1.791666667,0.291666667,0.062500000
1780392616.964658022,11.724134922,-529.921596497,165.319321496,-0.146319714,-0.004319787,0.000606824,0.479142559,0.877726256,-0.007001823,0.005204861,0.999347315,0.267585688,0.424322996,-0.075743559,0.005750000,0.018000000,-0.002000000,-0.085000000,-0.035000000,9.915000000,-1.531250000,-1.718750000,-0.781250000
1780392617.064826965,11.824303865,-529.902709302,165.349283558,-0.151429796,-0.004319241,0.001080643,0.479142761,0.877725692,-0.006546819,0.006036120,0.999346673,0.193660090,0.307287174,-0.050818374,0.021750000,0.007250000,-0.019000000,-0.095000000,-0.055000000,9.895000000,0.187500000,0.625000000,-2.906250000
1780392617.164598465,11.924075365,-529.881838357,165.382410957,-0.156601309,-0.004302406,0.001638847,0.479142666,0.877724962,-0.005982358,0.006999903,0.999346027,0.247190725,0.392428217,-0.058857795,0.014500000,0.021750000,0.010750000,-0.065000000,-0.035000000,9.950000000,0.687500000,-0.145833333,-0.166666667
1780392617.264524460,12.024001360,-529.861962286,165.413972548,-0.161014439,-0.004270542,0.002198396,0.479142156,0.877724173,-0.005390223,0.007951648,0.999345396,0.250382920,0.397637434,-0.053112976,0.016750000,0.004750000,0.014750000,-0.100000000,-0.040000000,9.950000000,0.416666667,-0.395833333,1.229166667
1780392617.364693642,12.124170542,-529.842084016,165.445545918,-0.164887064,-0.004223486,0.002779170,0.479141149,0.877723303,-0.004751082,0.008926094,0.999344687,0.246893079,0.392175651,-0.045480191,0.011250000,0.011000000,-0.004250000,-0.125000000,-0.035000000,9.930000000,0.218750000,-0.031250000,-1.375000000
1780392617.464673996,12.224150896,-529.822200354,165.477131197,-0.168185069,-0.004161886,0.003374920,0.479139574,0.877722369,-0.004072057,0.009912896,0.999343839,0.256023463,0.406697227,-0.039601461,0.018500000,0.011250000,0.003750000,-0.120000000,-0.035000000,9.940000000,-2.000000000,-0.750000000,-0.187500000
1780392617.564673185,12.324150085,-529.802308135,165.508728303,-0.170880664,-0.004086742,0.003979163,0.479137381,0.877721388,-0.003361117,0.010901630,0.999342790,0.105804638,0.168051468,-0.012940728,0.018000000,0.003000000,-0.005000000,-0.145000000,0.005000000,9.965000000,0.468750000,-2.312500000,-1.812500000
1780392617.664629459,12.424106359,-529.782404379,165.540337018,-0.172952631,-0.003999177,0.004585364,0.479134538,0.877720386,-0.002626494,0.011881901,0.999341478,0.250278510,0.397418451,-0.023061785,0.015750000,0.007250000,0.007250000,-0.170000000,0.030000000,9.970000000,0.718750000,-1.906250000,1.687500000
1780392617.764709949,12.524186850,-529.762486434,165.571957068,-0.174386485,-0.003900215,0.005187109,0.479131038,0.877719392,-0.001876135,0.012843434,0.999339842,0.244803910,0.388568593,-0.014651254,0.028500000,-0.001250000,0.028500000,-0.185000000,-0.000000000,9.950000000,1.625000000,-3.062500000,2.906250000
1780392617.864560127,12.624037027,-529.737565584,165.611497576,-0.175270421,-0.003761836,0.005923580,0.479125755,0.877718218,-0.000927476,0.014003711,0.999337245,0.253922690,0.402770409,-0.004881715,0.024000000,0.011250000,0.000500000,-0.170000000,0.015000000,9.960000000,0.625000000,-0.812500000,0.500000000
1780392617.964516401,12.723993301,-529.722599129,165.635229827,-0.175315989,-0.003671684,0.006352546,0.479122131,0.877717578,-0.000358151,0.014670380,0.999335365,0.265155033,0.420386772,0.001331395,0.018500000,0.002750000,0.014000000,-0.180000000,0.065000000,9.975000000,-0.062500000,0.187500000,2.343750000
1780392618.064597845,12.824074745,-529.697629383,165.674796031,-0.174593065,-0.003511048,0.007038006,0.479115396,0.877716683,0.000580694,0.015719792,0.999331590,0.251601708,0.398524983,0.011260103,0.023750000,0.008750000,0.010500000,-0.195000000,0.010000000,9.970000000,-2.156250000,-1.437500000,0.125000000
1780392618.164753675,12.924230576,-529.677628813,165.706459417,-0.173311203,-0.003374796,0.007553392,0.479109476,0.877716166,0.001313757,0.016494010,0.999327963,0.041700721,0.065988959,0.003276717,0.009500000,0.012000000,0.014500000,-0.180000000,0.035000000,9.955000000,-1.968750000,-0.843750000,1.687500000
1780392618.264509201,13.023986101,-529.657604858,165.738131189,-0.171425804,-0.003233284,0.008033607,0.479103177,0.877715872,0.002022344,0.017201451,0.999323746,0.254807893,0.402883790,0.026790967,0.026750000,-0.000000000,-0.000750000,-0.205000000,0.045000000,9.965000000,1.125000000,-1.500000000,-0.468750000
1780392618.364570141,13.124047041,-529.632540726,165.777731413,-0.168261481,-0.003051151,0.008576978,0.479094925,0.877715887,0.002862752,0.017980850,0.999317589,0.248935557,0.393107357,0.034841242,0.033750000,0.008000000,0.005000000,-0.245000000,0.105000000,9.975000000,1.562500000,-0.625000000,-0.416666667
1780392618.464560509,13.224037409,-529.612461535,165.809418994,-0.165124324,-0.002902795,0.008960907,0.479088154,0.877716251,0.003491072,0.018512714,0.999311931,0.250016657,0.394402186,0.041441234,0.018750000,-0.003000000,0.010250000,-0.260000000,0.085000000,9.905000000,0.291666667,-1.375000000,0.229166667
1780392618.564508438,13.323985338,-529.592357411,165.841112222,-0.161490759,-0.002753371,0.009295678,0.479081348,0.877716965,0.004074154,0.018957262,0.999305600,0.258000885,0.406561128,0.048877254,0.028750000,0.004000000,0.035500000,-0.290000000,0.060000000,9.945000000,1.916666667,-1.125000000,1.312500000
1780392618.664517164,13.423994064,-529.572228442,165.872810180,-0.157404679,-0.002604152,0.009578095,0.479074613,0.877718060,0.004606696,0.019310100,0.999298587,0.272320157,0.428656726,0.057409913,0.021500000,0.009250000,0.017000000,-0.285000000,0.085000000,9.950000000,0.916666667,-0.104166667,-0.229166667
1780392618.764680386,13.524157286,-529.547032681,165.912437781,-0.151734489,-0.002420059,0.009853418,0.479066451,0.877719995,0.005193639,0.019617080,0.999288868,0.260715482,0.409823176,0.061002321,0.022500000,-0.018250000,-0.010750000,-0.260000000,0.115000000,9.900000000,2.468750000,-2.968750000,-2.750000000
1780392618.864516735,13.623993635,-529.525839143,165.945728039,-0.146558001,-0.002269395,0.010015232,0.479059933,0.877722123,0.005613121,0.019756819,0.999279893,0.105565163,0.165733521,0.026520375,0.011250000,0.013250000,0.012250000,-0.250000000,0.125000000,9.900000000,0.458333333,0.708333333,-0.229166667
1780392618.964787006,13.724263906,-529.505630853,165.977434530,-0.141339717,-0.002130731,0.010108847,0.479054097,0.877724583,0.005946178,0.019788329,0.999270673,0.255460473,0.400648831,0.067107464,0.016250000,0.010250000,0.007500000,-0.255000000,0.105000000,9.870000000,-0.875000000,1.906250000,-1.687500000
1780392619.064508438,13.823985338,-529.481351346,166.015482898,-0.134789889,-0.001972115,0.010142440,0.479047654,0.877728083,0.006256717,0.019695357,0.999258790,0.251293710,0.393601476,0.068813786,-0.001750000,0.019500000,0.008250000,-0.255000000,0.090000000,9.890000000,-2.343750000,1.875000000,-0.656250000
1780392619.164618969,13.924095869,-529.456027800,166.055115667,-0.127739132,-0.001817593,0.010086398,0.479041654,0.877732336,0.006474159,0.019448947,0.999245525,0.250428387,0.391729331,0.070334360,0.019500000,0.003750000,-0.000750000,-0.250000000,0.100000000,9.865000000,2.500000000,0.250000000,0.062500000
1780392619.264520407,14.023997307,-529.434732145,166.088405143,-0.121722904,-0.001697569,0.009968736,0.479037201,0.877736352,0.006572004,0.019127408,0.999233754,0.305277701,0.477029238,0.086419409,0.020250000,0.012250000,0.000750000,-0.250000000,0.100000000,9.875000000,1.020833333,0.541666667,-0.041666667
1780392619.364571095,14.124047995,-529.415447145,166.118521618,-0.116269236,-0.001597667,0.009808260,0.479033632,0.877740295,0.006593507,0.018749980,0.999222672,0.251469148,0.392572006,0.070984762,0.004250000,0.001500000,0.010250000,-0.235000000,0.120000000,9.855000000,-0.281250000,0.281250000,-0.843750000
1780392619.464803934,14.224280834,-529.395130414,166.150219605,-0.110577198,-0.001502265,0.009585933,0.479030322,0.877744726,0.006547834,0.018268281,0.999210610,0.265874690,0.414668351,0.074053989,0.019500000,-0.008000000,-0.003750000,-0.250000000,0.120000000,9.805000000,-0.083333333,-0.479166667,-1.020833333
1780392619.564676285,14.324153185,-529.369712487,166.189835648,-0.103621691,-0.001398136,0.009235048,0.479026772,0.877750597,0.006394270,0.017552528,0.999195060,0.257168527,0.400641913,0.069384845,0.004000000,0.011250000,0.024000000,-0.255000000,0.100000000,9.860000000,1.281250000,2.375000000,3.968750000
1780392619.664505959,14.423982859,-529.344272931,166.229443106,-0.096948148,-0.001311677,0.008809137,0.479023782,0.877756740,0.006137803,0.016721987,0.999179124,0.266030831,0.414022385,0.068315255,-0.002250000,0.001250000,0.008000000,-0.190000000,0.125000000,9.825000000,-0.218750000,0.750000000,-0.687500000
1780392619.764446497,14.523923397,-529.323907819,166.261121897,-0.091883927,-0.001255616,0.008419505,0.479021702,0.877761781,0.005862771,0.015984254,0.999166180,0.155623024,0.241999999,0.037779339,0.008750000,-0.002750000,0.017500000,-0.235000000,0.120000000,9.800000000,-0.270833333,1.020833333,1.270833333
1780392619.864519596,14.623996496,-529.299456416,166.299126917,-0.086206210,-0.001204107,0.007901196,0.479019463,0.877767894,0.005456443,0.015024978,0.999150528,0.243845582,0.378889397,0.054713884,-0.001500000,-0.013000000,-0.008250000,-0.180000000,0.070000000,9.800000000,-1.375000000,-0.375000000,-2.093750000
1780392619.964550018,14.724026918,-529.281110017,166.327623155,-0.082279460,-0.001176970,0.007480777,0.479017895,0.877772470,0.005101169,0.014260903,0.999138772,0.178508305,0.277202045,0.036956730,0.008750000,-0.011000000,0.006000000,-0.175000000,0.130000000,9.785000000,0.875000000,-0.312500000,-0.406250000
1780392620.064569235,14.824046135,-529.259699266,166.360859866,-0.078102931,-0.001157883,0.006961458,0.479016103,0.877777745,0.004637002,0.013330909,0.999125107,0.263094054,0.408319726,0.049161421,0.016250000,0.007750000,0.007000000,-0.210000000,0.105000000,9.805000000,0.593750000,2.906250000,1.468750000
1780392620.164589405,14.924066305,-529.234203874,166.400413965,-0.073756131,-0.001152747,0.006311085,0.479013924,0.877783858,0.004022779,0.012184203,0.999109024,0.282526921,0.438218195,0.044994496,-0.002750000,-0.010000000,0.005250000,-0.170000000,0.085000000,9.785000000,1.020833333,0.229166667,0.312500000
1780392620.264607191,15.024084091,-529.212784989,166.433627417,-0.070672913,-0.001162862,0.005745497,0.479011965,0.877788798,0.003463052,0.011200949,0.999095739,0.200767170,0.311273224,0.026850898,-0.003250000,-0.007750000,-0.002500000,-0.125000000,0.075000000,9.780000000,-0.281250000,-0.500000000,-0.968750000
1780392620.364565611,15.124042511,-529.196465682,166.458925201,-0.068691990,-0.001179119,0.005307259,0.479010352,0.877792416,0.003014591,0.010447154,0.999085793,0.030200597,0.046811860,0.003382450,0.006250000,-0.011750000,0.007750000,-0.185000000,0.035000000,9.805000000,1.020833333,-0.729166667,0.958333333
1780392620.464610338,15.224087238,-529.176068100,166.490537735,-0.066681131,-0.001209477,0.004755640,0.479008156,0.877796735,0.002432743,0.009507812,0.999073619,0.253945426,0.393539121,0.022582009,0.000250000,0.000500000,-0.007750000,-0.145000000,0.065000000,9.800000000,-0.687500000,4.062500000,-2.531250000
1780392620.564498186,15.323975086,-529.150576415,166.530037776,-0.064915314,-0.001262432,0.004068592,0.479005093,0.877801785,0.001681483,0.008352354,0.999058860,0.254776247,0.394760549,0.014285429,0.002750000,0.002750000,0.018000000,-0.145000000,0.065000000,9.800000000,0.968750000,1.500000000,-0.093750000
1780392620.664641619,15.424118519,-529.140382199,166.545832835,-0.064445339,-0.001288079,0.003796885,0.479003765,0.877803689,0.001376126,0.007899911,0.999053118,0.265732458,0.411728766,0.011366619,0.007500000,-0.017000000,-0.001000000,-0.110000000,0.025000000,9.750000000,0.718750000,-2.406250000,-0.937500000
1780392620.764842033,15.524318933,-529.121018283,166.575835534,-0.063926817,-0.001343442,0.003289120,0.479001077,0.877807123,0.000792438,0.007061506,0.999042470,0.213871126,0.331378369,0.003730826,-0.001250000,0.001750000,-0.003750000,-0.095000000,0.040000000,9.785000000,-1.375000000,1.468750000,-2.937500000
1780392620.864666462,15.624143362,-529.099625611,166.608984328,-0.063922991,-0.001414132,0.002745754,0.478997872,0.877810629,0.000147744,0.006175276,0.999031144,0.261811118,0.405709913,-0.002725329,-0.004750000,-0.004000000,-0.004000000,-0.110000000,0.030000000,9.730000000,0.343750000,-0.406250000,-2.875000000
1780392620.964507818,15.723984718,-529.084352457,166.632654279,-0.064282189,-0.001470194,0.002372521,0.478995440,0.877812952,-0.000308261,0.005573721,0.999023334,0.259600582,0.402344011,-0.007798651,0.004250000,-0.010500000,-0.002500000,-0.075000000,0.015000000,9.775000000,-0.333333333,-1.625000000,-1.541666667
1780392621.064548731,15.824025631,-529.069086355,166.656317856,-0.064937476,-0.001530503,0.002014199,0.478992912,0.877815123,-0.000757434,0.005002410,0.999015779,0.025459496,0.039467632,-0.001320369,0.003750000,-0.020000000,0.009750000,-0.075000000,0.025000000,9.760000000,-0.604166667,-2.166666667,-0.166666667
1780392621.164697886,15.924174786,-529.045693716,166.692589820,-0.066501194,-0.001630322,0.001498559,0.478988880,0.877818176,-0.001426680,0.004192749,0.999004680,0.140472136,0.217855832,-0.011120305,-0.008250000,-0.003500000,0.004250000,-0.055000000,-0.015000000,9.775000000,0.593750000,-1.312500000,1.437500000
1780392621.264617920,16.024094820,-529.024353341,166.725695172,-0.068495246,-0.001728200,0.001068739,0.478985086,0.877820687,-0.002010293,0.003531894,0.998995053,0.258699984,0.401398817,-0.026594874,0.007250000,-0.009750000,0.006000000,-0.045000000,-0.020000000,9.820000000,0.270833333,-0.729166667,0.916666667
1780392621.364585638,16.124062538,-529.008106737,166.750910595,-0.070357780,-0.001806445,0.000770639,0.478982167,0.877822434,-0.002433246,0.003083484,0.998988055,0.252064570,0.391274140,-0.030433378,0.010000000,-0.001500000,-0.004500000,-0.045000000,0.005000000,9.760000000,0.958333333,0.291666667,-1.729166667
1780392621.464500666,16.223977566,-528.987815063,166.782420957,-0.073076710,-0.001907918,0.000436999,0.478978531,0.877824434,-0.002931022,0.002594924,0.998979703,0.268454538,0.416973305,-0.038050640,0.021000000,-0.001750000,0.002000000,-0.075000000,0.015000000,9.795000000,1.104166667,0.437500000,-0.812500000
1780392621.564508200,16.323985100,-528.967542846,166.813922024,-0.076196707,-0.002012551,0.000149797,0.478974958,0.877826245,-0.003389857,0.002190916,0.998971785,0.040565459,0.063055199,-0.006603819,0.000500000,0.012250000,-0.015250000,-0.035000000,-0.020000000,9.820000000,-0.583333333,1.104166667,-1.270833333
1780392621.664734840,16.424211740,-528.945266934,166.848563383,-0.080044949,-0.002130080,-0.000109087,0.478971164,0.877828044,-0.003844203,0.001848976,0.998963561,0.155840903,0.242437044,-0.028153142,-0.002250000,0.009250000,-0.004750000,-0.050000000,0.000000000,9.790000000,0.125000000,0.854166667,-0.583333333
1780392621.764582157,16.524059057,-528.922005667,166.884769580,-0.084473948,-0.002254239,-0.000312663,0.478967411,0.877829733,-0.004257206,0.001610485,0.998955479,0.258309748,0.402209222,-0.050835337,0.013500000,0.002750000,0.004000000,-0.035000000,-0.030000000,9.800000000,1.437500000,-0.031250000,-0.406250000
1780392621.864532948,16.624009848,-528.906850489,166.908377636,-0.087553072,-0.002335242,-0.000407303,0.478965112,0.877830737,-0.004490083,0.001521914,0.998950492,0.249978494,0.389488167,-0.051548423,0.025750000,-0.004000000,0.025250000,-0.070000000,-0.040000000,9.825000000,2.062500000,-0.593750000,2.218750000
1780392621.964598656,16.724075556,-528.886662227,166.939850145,-0.091851595,-0.002442467,-0.000485739,0.478962243,0.877831970,-0.004753475,0.001486905,0.998944157,0.277563737,0.432851539,-0.060131534,0.015000000,-0.002500000,0.030750000,-0.010000000,-0.030000000,9.795000000,1.437500000,-0.218750000,3.281250000
1780392622.064647198,16.824124098,-528.866495006,166.971318064,-0.096324455,-0.002547999,-0.000509160,0.478959617,0.877833090,-0.004961196,0.001546862,0.998938171,0.123404524,0.192629236,-0.027752828,-0.000500000,0.004500000,-0.012500000,-0.045000000,-0.020000000,9.840000000,-1.125000000,-0.812500000,-0.406250000
1780392622.164583206,16.924060106,-528.846348243,167.002782547,-0.100919905,-0.002650962,-0.000477637,0.478957237,0.877834101,-0.005111776,0.001700824,0.998932514,0.252111192,0.393870758,-0.057959520,0.014000000,0.010500000,0.008000000,-0.050000000,-0.030000000,9.845000000,0.125000000,1.312500000,-0.031250000
1780392622.264500380,17.023977280,-528.821192191,167.042110150,-0.106756514,-0.002774730,-0.000362027,0.478954589,0.877835219,-0.005218334,0.002022341,0.998925865,0.253501899,0.396486723,-0.059035548,0.012250000,0.001750000,0.015500000,-0.030000000,-0.060000000,9.840000000,0.645833333,-0.437500000,-0.812500000
1780392622.364526749,17.124003649,-528.801087845,167.073571351,-0.111435347,-0.002868804,-0.000210177,0.478952707,0.877835993,-0.005238048,0.002379043,0.998920865,0.244539671,0.382801440,-0.056808281,0.004000000,0.005750000,0.013750000,-0.045000000,0.005000000,9.875000000,-0.270833333,-0.479166667,0.229166667
1780392622.464557171,17.224034071,-528.781000112,167.105033094,-0.116066046,-0.002957675,-0.000007624,0.478950994,0.877836658,-0.005200059,0.002819781,0.998916120,0.261316520,0.409402748,-0.059875449,0.029000000,0.017750000,0.006000000,-0.030000000,-0.040000000,9.870000000,2.031250000,1.468750000,-0.218750000
1780392622.564603567,17.324080467,-528.755911146,167.144362864,-0.121708991,-0.003060501,0.000313031,0.478949021,0.877837326,-0.005073444,0.003481236,0.998910516,0.256994049,0.403019501,-0.056946760,0.021250000,0.011500000,-0.004500000,-0.065000000,0.010000000,9.870000000,3.218750000,1.656250000,-1.937500000
1780392622.664498806,17.423975706,-528.740867303,167.167962956,-0.124980190,-0.003117370,0.000539152,0.478947881,0.877837638,-0.004956697,0.003932701,0.998907299,0.111602552,0.175106837,-0.024019415,0.001250000,0.005500000,0.001000000,-0.080000000,-0.040000000,9.930000000,-1.187500000,-2.468750000,0.281250000
1780392622.764788151,17.524265051,-528.718813741,167.202580652,-0.129573050,-0.003193789,0.000912856,0.478946217,0.877837962,-0.004732909,0.004662003,0.998902781,0.258853675,0.406431938,-0.052681949,0.022000000,0.011000000,-0.010250000,-0.055000000,0.005000000,9.905000000,1.718750000,0.625000000,-1.187500000
1780392622.864537477,17.624014378,-528.695768373,167.238778565,-0.134057071,-0.003264188,0.001351979,0.478944388,0.877838135,-0.004435894,0.005500395,0.998898239,0.248929920,0.391092954,-0.046913674,0.005000000,0.008750000,0.011750000,-0.110000000,0.010000000,9.955000000,-0.604166667,0.458333333,1.437500000
1780392622.964521885,17.723998785,-528.675735022,167.270261738,-0.137644708,-0.003317121,0.001769032,0.478942658,0.877838139,-0.004129355,0.006283310,0.998894423,0.252698728,0.397189911,-0.043772357,0.010750000,0.012500000,-0.008000000,-0.055000000,-0.000000000,9.895000000,-1.281250000,0.125000000,-2.937500000
1780392623.064529657,17.824006557,-528.650697404,167.309625925,-0.141663184,-0.003372016,0.002328905,0.478940214,0.877837956,-0.003689462,0.007318856,0.998889779,0.253306456,0.398311317,-0.038419006,0.028500000,0.015000000,0.021250000,-0.095000000,-0.015000000,9.930000000,1.687500000,0.968750000,1.062500000
1780392623.164541721,17.924018621,-528.634673617,167.334825611,-0.143936165,-0.003400426,0.002705526,0.478938439,0.877837735,-0.003378598,0.008007300,0.998886849,0.255694274,0.402140318,-0.034928473,0.017500000,0.005750000,0.002750000,-0.120000000,-0.010000000,9.915000000,1.906250000,-3.125000000,-1.093750000
1780392623.264530659,18.024007559,-528.610635153,167.372635682,-0.146872212,-0.003433120,0.003290388,0.478935409,0.877837263,-0.002875797,0.009065460,0.998882473,0.252229712,0.396752315,-0.028360508,0.046750000,0.020000000,-0.010500000,-0.120000000,0.000000000,9.930000000,3.843750000,0.625000000,-0.250000000
1780392623.364758492,18.124235392,-528.585587554,167.412035517,-0.149289270,-0.003454528,0.003916037,0.478931727,0.877836620,-0.002314116,0.010184423,0.998877876,0.245656682,0.386412490,-0.021050542,0.032000000,0.009000000,0.013500000,-0.110000000,0.020000000,9.895000000,2.531250000,-1.843750000,2.718750000
1780392623.464566708,18.224043608,-528.561530599,167.449873883,-0.150963769,-0.003463085,0.004522550,0.478927656,0.877835892,-0.001748204,0.011257486,0.998873369,0.184066520,0.289491455,-0.010749574,0.003000000,-0.003000000,0.003250000,-0.135000000,0.010000000,9.930000000,0.093750000,-0.343750000,1.062500000
1780392623.564727068,18.324203968,-528.542475266,167.479839668,-0.151828004,-0.003461700,0.005000409,0.478924054,0.877835271,-0.001288067,0.012095149,0.998869690,0.266199812,0.418583284,-0.009952449,0.030000000,0.022250000,0.011750000,-0.150000000,0.035000000,9.965000000,0.906250000,1.156250000,0.812500000
1780392623.664511442,18.423988342,-528.525416584,167.506659053,-0.152251485,-0.003454501,0.005422075,0.478920547,0.877834710,-0.000871547,0.012828587,0.998866270,0.267395016,0.420353659,-0.004805790,-0.002250000,0.010750000,0.035000000,-0.185000000,0.005000000,9.940000000,-5.000000000,0.031250000,5.125000000
1780392623.764597893,18.524074793,-528.500312276,167.546112908,-0.152274332,-0.003434147,0.006024899,0.478914944,0.877833916,-0.000258418,0.013867494,0.998860992,0.264734362,0.415970335,0.002755206,0.012500000,0.015000000,0.010750000,-0.170000000,0.030000000,9.965000000,-0.812500000,-0.250000000,-0.468750000
1780392623.864574909,18.624051809,-528.481217043,167.576108550,-0.151819708,-0.003411327,0.006463766,0.478910370,0.877833378,0.000201997,0.014616180,0.998856743,0.164465366,0.258302239,0.005281533,0.019500000,0.007250000,0.011750000,-0.195000000,0.025000000,9.935000000,-1.218750000,0.718750000,0.531250000
1780392623.964516163,18.723993063,-528.456068625,167.615590225,-0.150617526,-0.003372286,0.007008051,0.478904000,0.877832828,0.000791856,0.015534421,0.998850762,0.195473199,0.306795862,0.011426726,0.029000000,0.017750000,-0.009000000,-0.215000000,0.065000000,9.950000000,0.406250000,1.031250000,-1.968750000
1780392624.064552307,18.824029207,-528.435929748,167.647186432,-0.149181077,-0.003334265,0.007410771,0.478898690,0.877832562,0.001244328,0.016205091,0.998845625,0.245450597,0.385000632,0.019369091,0.008250000,0.013750000,0.010250000,-0.200000000,0.035000000,9.935000000,-0.354166667,0.833333333,-0.208333333
1780392624.164558887,18.924035788,-528.411738232,167.685113999,-0.146932733,-0.003281428,0.007849206,0.478892161,0.877832513,0.001757011,0.016924284,0.998838994,0.257591205,0.403722321,0.026242471,0.012750000,0.012500000,-0.010750000,-0.215000000,0.070000000,9.900000000,-1.406250000,1.250000000,-1.312500000
1780392624.264533043,19.024009943,-528.386508943,167.724635052,-0.144028651,-0.003218989,0.008247213,0.478885299,0.877832838,0.002247817,0.017563305,0.998831506,0.257468114,0.403173270,0.031823556,0.016500000,0.008500000,-0.010250000,-0.220000000,0.095000000,9.880000000,-0.062500000,-0.937500000,-0.687500000
1780392624.364509344,19.123986244,-528.366303199,167.756260790,-0.141332288,-0.003164349,0.008518205,0.478879849,0.877833422,0.002603275,0.017986787,0.998825051,0.250198348,0.391497829,0.034810640,0.009500000,-0.003750000,0.005750000,-0.225000000,0.065000000,9.880000000,-0.468750000,-0.562500000,1.843750000
1780392624.464606524,19.224083424,-528.350124254,167.781566587,-0.138961716,-0.003118094,0.008702589,0.478875565,0.877834116,0.002861057,0.018266232,0.998819581,0.267889591,0.418924010,0.040251702,0.015000000,-0.000750000,-0.005750000,-0.200000000,0.085000000,9.915000000,0.520833333,0.104166667,-0.125000000
