sim_time_sec,elapsed_time_sec,global_x,global_y,global_z,global_qx,global_qy,global_qz,global_qw,roll,pitch,yaw,global_vx,global_vy,global_vz,imu_angular_velocity_x,imu_angular_velocity_y,imu_angular_velocity_z,imu_linear_acceleration_x,imu_linear_acceleration_y,imu_linear_acceleration_z,imu_angular_acceleration_x,imu_angular_acceleration_y,imu_angular_acceleration_z
1780364196.678016186,0.124636412,-532.029918339,161.996062306,-0.214380777,-0.002871895,0.005294794,0.479502115,0.877520051,0.000037441,0.012047027,1.000194572,-0.008349905,0.000053007,-0.005429345,0.014250000,0.013000000,-0.004750000,-0.090000000,-0.045000000,9.915000000,-0.854166667,-1.062500000,0.375000000
1780364196.778007269,0.224627495,-532.030083616,161.996635823,-0.214164656,-0.002688370,0.005922710,0.479496922,0.877519456,0.000961730,0.012973081,1.000192040,0.001163540,0.006728946,0.003638225,0.029000000,0.018500000,-0.004500000,0.150000000,-0.070000000,9.920000000,1.437500000,1.562500000,0.020833333
1780364196.878072739,0.324692965,-532.029317785,161.998774336,-0.212859143,-0.002340318,0.006499943,0.479490699,0.877519768,0.002126173,0.013652402,1.000189096,0.013814579,0.033931109,0.021393367,0.019750000,0.013750000,0.001750000,0.150000000,-0.060000000,9.905000000,-0.468750000,0.062500000,1.281250000
1780364196.977992296,0.424612522,-532.027102314,162.003548414,-0.209722204,-0.001704944,0.007233514,0.479480702,0.877520955,0.003944828,0.014330585,1.000184164,0.027759428,0.056726876,0.037945678,0.026250000,-0.006250000,-0.005000000,0.170000000,0.035000000,9.905000000,-0.583333333,-0.187500000,0.354166667
1780364197.078082085,0.524702311,-532.023491317,162.010434703,-0.205031219,-0.001115424,0.008012177,0.479468725,0.877521682,0.005726246,0.015131917,1.000177503,0.042113619,0.077407834,0.053117890,0.011500000,0.016500000,-0.001750000,0.140000000,0.045000000,9.930000000,-3.312500000,-1.000000000,0.125000000
1780364197.177926779,0.624547005,-532.019588628,162.017330415,-0.200296026,-0.000844639,0.008647365,0.479458551,0.877521514,0.006810651,0.015987118,1.000170925,0.055158283,0.095608291,0.065533135,0.003250000,0.017000000,0.004000000,0.145000000,0.155000000,9.865000000,-1.625000000,-0.156250000,0.531250000
1780364197.277929068,0.724549294,-532.019588628,162.017330415,-0.200296026,-0.000844639,0.008647365,0.479458551,0.877521514,0.006810651,0.015987118,1.000170925,0.055158283,0.095608291,0.065533135,0.011500000,0.013500000,-0.009000000,0.090000000,0.030000000,9.865000000,1.906250000,-0.718750000,-0.093750000
1780364197.378070831,0.824691057,-532.018474854,162.019239871,-0.198991020,-0.000807706,0.008806486,0.479455916,0.877521406,0.007028069,0.016230992,1.000168999,0.009531059,0.016340064,0.011167523,0.020500000,0.008750000,0.002250000,0.060000000,0.115000000,9.875000000,-0.656250000,0.093750000,0.343750000
1780364197.477955341,0.924575567,-531.999126517,162.051442779,-0.177795079,-0.000536828,0.010886678,0.479416721,0.877519686,0.009498329,0.019622536,1.000138009,0.087382868,0.144614511,0.092844040,0.018250000,0.011500000,0.007250000,0.015000000,0.035000000,9.860000000,-0.843750000,-0.562500000,0.093750000
1780364197.578010082,1.024630308,-531.992061959,162.063107083,-0.170342833,-0.000316409,0.011375803,0.479404493,0.877520269,0.010354223,0.020269759,1.000127735,0.099540821,0.164040352,0.104570766,0.011500000,0.013750000,0.006500000,-0.040000000,0.400000000,9.870000000,0.541666667,0.125000000,-1.270833333
1780364197.678012133,1.124632359,-531.982169330,162.079248605,-0.160091916,-0.000031986,0.011782282,0.479390217,0.877522761,0.011243133,0.020710589,1.000111775,0.111591124,0.181104203,0.114613293,-0.004750000,0.018500000,-0.003500000,-0.015000000,0.120000000,9.845000000,-0.479166667,2.625000000,-0.895833333
1780364197.777874708,1.224494934,-531.970730869,162.097603198,-0.148595140,0.000156261,0.011924230,0.479378056,0.877527474,0.011709470,0.020779358,1.000091141,0.119831034,0.191234281,0.118657961,0.015000000,-0.000750000,-0.009250000,0.010000000,-0.390000000,9.770000000,0.625000000,0.229166667,-1.395833333
1780364197.877930641,1.324550867,-531.959285721,162.115787214,-0.137546516,0.000235936,0.011878566,0.479369746,0.877532615,0.011805317,0.020622918,1.000071699,0.098282621,0.156019254,0.093225000,0.013250000,0.004500000,-0.005500000,0.010000000,0.490000000,9.870000000,1.312500000,0.156250000,-2.125000000
1780364197.977881670,1.424501896,-531.945981271,162.136885265,-0.125330037,0.000318697,0.011780276,0.479360251,0.877539101,0.011856069,0.020371173,1.000047845,0.126298417,0.200466221,0.113398705,0.006000000,-0.012000000,0.000000000,-0.015000000,0.055000000,9.710000000,1.218750000,-2.812500000,1.062500000
1780364198.077917576,1.524537802,-531.933035503,162.157453819,-0.114103156,0.000416981,0.011707604,0.479351669,0.877544720,0.011958670,0.020149494,1.000027112,0.078083706,0.124213589,0.066047134,0.006250000,0.021500000,0.012000000,-0.030000000,-0.465000000,9.690000000,1.218750000,2.343750000,3.062500000
1780364198.177924871,1.624545097,-531.918199612,162.180968424,-0.102050836,0.000481578,0.011611569,0.479341713,0.877551401,0.011979701,0.019919134,1.000002061,0.132815992,0.210082060,0.104840772,0.003000000,0.003500000,0.005250000,-0.030000000,0.115000000,9.730000000,0.750000000,-0.083333333,1.062500000
1780364198.277930260,1.724550486,-531.903194066,162.204596376,-0.090726413,0.000415587,0.011410248,0.479334189,0.877558186,0.011670560,0.019629165,0.999977577,0.159622561,0.250608588,0.116878038,0.006750000,-0.012750000,-0.003750000,-0.040000000,-0.400000000,9.675000000,0.500000000,0.333333333,-1.500000000
1780364198.377864599,1.824484825,-531.886791685,162.230257465,-0.079313247,0.000230788,0.011031053,0.479328726,0.877566086,0.010982296,0.019140878,0.999950976,0.168022915,0.262441281,0.112879392,0.010500000,0.003000000,0.007500000,-0.060000000,0.980000000,9.795000000,1.666666667,0.833333333,0.687500000
1780364198.477869749,1.924489975,-531.869684211,162.256967348,-0.068456480,0.000040994,0.010494470,0.479324898,0.877574787,0.010134358,0.018381101,0.999923948,0.172283812,0.269286032,0.105128888,0.001750000,-0.006250000,-0.001250000,-0.080000000,0.035000000,9.690000000,-0.979166667,-0.458333333,-1.500000000
1780364198.577889681,2.024509907,-531.851953716,162.284682117,-0.058332568,-0.000069640,0.009844826,0.479321222,0.877584321,0.009316974,0.017346960,0.999896024,0.183025765,0.286086257,0.099703505,0.002500000,-0.017000000,0.016500000,-0.030000000,-0.815000000,9.570000000,-0.645833333,-1.604166667,-0.166666667
1780364198.677954912,2.124575138,-531.833645064,162.313314725,-0.049101324,-0.000145788,0.009101006,0.479318815,0.877593655,0.008469882,0.016114427,0.999870283,0.187712752,0.293099951,0.089444282,-0.006500000,0.003750000,-0.001500000,-0.020000000,0.480000000,9.675000000,-0.187500000,1.770833333,0.062500000
1780364198.777967215,2.224587440,-531.814767100,162.342750085,-0.040907026,-0.000290397,0.008270812,0.479317019,0.877602817,0.007419856,0.014795900,0.999844995,0.189054429,0.294427017,0.076693488,-0.010000000,-0.044000000,0.005750000,-0.010000000,-0.450000000,9.580000000,-0.812500000,-2.166666667,-0.020833333
1780364198.877862453,2.324482679,-531.800056037,162.365602006,-0.035459111,-0.000477627,0.007598906,0.479315263,0.877609770,0.006446862,0.013796053,0.999824824,0.196040789,0.304304265,0.068593943,-0.011750000,0.000750000,0.007750000,0.060000000,0.945000000,9.685000000,-1.812500000,1.229166667,1.479166667
1780364198.977971792,2.424592018,-531.780281339,162.396271839,-0.029423122,-0.000795048,0.006699152,0.479313273,0.877617955,0.005026903,0.012521073,0.999800484,0.202590762,0.314188033,0.055827834,0.003750000,-0.010250000,0.010250000,-0.010000000,-0.020000000,9.575000000,2.031250000,-1.250000000,-0.187500000
1780364199.077920437,2.524540663,-531.760093789,162.427605465,-0.024765497,-0.001113522,0.005821148,0.479310465,0.877625405,0.003626003,0.011285259,0.999777403,0.202089744,0.314109679,0.040660856,0.004500000,-0.013000000,0.005750000,0.025000000,-0.545000000,9.550000000,2.500000000,-1.656250000,-0.843750000
1780364199.178004026,2.624624252,-531.746150260,162.449277544,-0.022412332,-0.001308666,0.005237411,0.479308008,0.877630156,0.002723768,0.010447718,0.999762304,0.203265262,0.316022748,0.030759623,-0.009750000,-0.006750000,-0.001250000,-0.020000000,-0.855000000,9.495000000,-1.687500000,1.000000000,-0.093750000
1780364199.277910233,2.724530458,-531.729521405,162.475127808,-0.020490337,-0.001526988,0.004546856,0.479304395,0.877635626,0.001678454,0.009444890,0.999744416,0.225370972,0.350141843,0.021296319,-0.008750000,-0.007250000,0.008500000,0.015000000,-0.025000000,9.625000000,2.625000000,-0.093750000,2.750000000
1780364199.377987146,2.824607372,-531.713502159,162.500018393,-0.019504007,-0.001750806,0.003866575,0.479301630,0.877639978,0.000633380,0.008465352,0.999730145,0.182170001,0.282836220,0.007528270,-0.008250000,-0.010750000,0.008250000,0.085000000,0.875000000,9.690000000,1.062500000,-0.750000000,1.781250000
1780364199.478085756,2.924705982,-531.695547690,162.527875036,-0.019356058,-0.002025768,0.003084850,0.479298106,0.877644407,-0.000598699,0.007356764,0.999714830,0.221078323,0.342859043,-0.002790765,-0.009500000,-0.015500000,0.011500000,0.025000000,-0.865000000,9.530000000,0.031250000,0.156250000,2.437500000
1780364199.578024864,3.024645090,-531.682578873,162.547984111,-0.019854419,-0.002233810,0.002517391,0.479295409,0.877647186,-0.001507879,0.006560119,0.999704689,0.218433249,0.338488902,-0.011186095,-0.009750000,-0.003000000,0.008750000,0.075000000,0.720000000,9.695000000,-1.593750000,0.875000000,-0.500000000
1780364199.678013563,3.124633789,-531.665127877,162.575058937,-0.021303758,-0.002505336,0.001774213,0.479291595,0.877650353,-0.002696932,0.005515877,0.999692466,0.231548484,0.359630181,-0.023624555,0.011500000,-0.027500000,0.001250000,0.045000000,0.420000000,9.685000000,1.593750000,-1.062500000,2.937500000
1780364199.777990341,3.224610567,-531.648404488,162.601043778,-0.023510908,-0.002737560,0.001108753,0.479287183,0.877653162,-0.003742482,0.004570372,0.999680916,0.150385222,0.233687794,-0.022810212,-0.026750000,-0.019750000,-0.003000000,0.100000000,-0.095000000,9.610000000,-3.593750000,0.906250000,-0.781250000
1780364199.877993345,3.324613571,-531.630671621,162.628657854,-0.026696093,-0.002959078,0.000464987,0.479283028,0.877655289,-0.004748430,0.003652677,0.999671462,0.227747123,0.354830825,-0.044967106,-0.017250000,-0.001750000,-0.006250000,0.045000000,-1.000000000,9.515000000,-2.020833333,1.812500000,-0.229166667
1780364199.978077888,3.424698114,-531.611909486,162.657911528,-0.030957789,-0.003183133,-0.000145001,0.479278329,0.877657183,-0.005726445,0.002796694,0.999662063,0.225817454,0.352405158,-0.055324715,-0.020750000,-0.001500000,-0.010250000,0.135000000,0.420000000,9.665000000,-3.437500000,1.156250000,0.281250000
1780364200.077952862,3.524573088,-531.598419429,162.678955543,-0.034546116,-0.003352366,-0.000543996,0.479275045,0.877658189,-0.006405971,0.002258529,0.999656108,0.236830551,0.369481095,-0.065433256,-0.013500000,0.012500000,0.007250000,0.090000000,0.375000000,9.695000000,-1.000000000,2.229166667,1.229166667
1780364200.177875042,3.624495268,-531.580325104,162.707196334,-0.039985599,-0.003597706,-0.001033344,0.479271467,0.877658732,-0.007305697,0.001634709,0.999650569,0.057984945,0.090653363,-0.018422482,0.002000000,0.007000000,0.004000000,0.045000000,-0.140000000,9.645000000,-0.166666667,0.645833333,0.166666667
1780364200.277967691,3.724587917,-531.558462425,162.741348704,-0.047412908,-0.003896948,-0.001549003,0.479267233,0.877659008,-0.008325257,0.001016367,0.999644613,0.229846728,0.359523560,-0.081722896,-0.007250000,0.003500000,0.013000000,0.100000000,0.360000000,9.705000000,-1.000000000,1.875000000,0.593750000
1780364200.377976179,3.824596405,-531.539222985,162.771465511,-0.054627918,-0.004130123,-0.001925488,0.479263679,0.877659137,-0.009095440,0.000578992,0.999639848,0.229356246,0.359438132,-0.088666569,-0.014750000,0.004500000,0.008500000,0.100000000,-0.180000000,9.665000000,0.833333333,0.312500000,-0.500000000
1780364200.477979183,3.924599409,-531.520824723,162.800347463,-0.062041777,-0.004311146,-0.002214233,0.479261179,0.877658951,-0.009689977,0.000245647,0.999637081,0.230379077,0.361786812,-0.094933953,0.005000000,0.001750000,0.015500000,0.070000000,-0.545000000,9.585000000,1.937500000,-0.156250000,0.625000000
1780364200.577953577,4.024573803,-531.502356563,162.829410187,-0.069909144,-0.004455334,-0.002435633,0.479259391,0.877658620,-0.010155299,-0.000004788,0.999635474,0.227934972,0.359172958,-0.098888206,0.008500000,-0.006250000,-0.004250000,0.070000000,0.670000000,9.795000000,-0.666666667,-0.062500000,-0.520833333
1780364200.678187847,4.124808073,-531.483817817,162.858636104,-0.078150984,-0.004579376,-0.002593952,0.479258234,0.877658160,-0.010524794,-0.000163799,0.999634723,0.249441199,0.393455312,-0.112384164,0.000250000,0.014000000,0.009250000,0.050000000,-0.145000000,9.705000000,-0.156250000,2.156250000,2.156250000
1780364200.778043747,4.224663973,-531.465210882,162.888009571,-0.086684590,-0.004698455,-0.002690384,0.479257841,0.877657455,-0.010826256,-0.000218929,0.999635032,0.118756843,0.187447375,-0.054948842,-0.021250000,-0.012250000,0.019500000,0.045000000,-0.540000000,9.655000000,-3.343750000,-1.906250000,2.250000000
1780364200.878013849,4.324634075,-531.446543554,162.917520012,-0.095425672,-0.004814107,-0.002718891,0.479258355,0.877656459,-0.011056592,-0.000158102,0.999636577,0.230987399,0.365584458,-0.108822015,0.007500000,0.000750000,0.004250000,0.100000000,-0.140000000,9.740000000,0.093750000,0.406250000,-0.062500000
1780364200.977854729,4.424474955,-531.425019778,162.951620694,-0.105624872,-0.004927548,-0.002654269,0.479260216,0.877655011,-0.011193778,0.000064090,0.999639999,0.229603269,0.364298532,-0.109093038,0.003250000,0.002500000,-0.002250000,0.040000000,-1.115000000,9.630000000,-0.906250000,1.562500000,-1.062500000
1780364201.077955246,4.524575472,-531.409076724,162.976932660,-0.113192542,-0.004982839,-0.002531324,0.479261452,0.877654388,-0.011172986,0.000332910,0.999641264,0.228269685,0.362529093,-0.108205659,0.017250000,-0.003500000,-0.008250000,0.145000000,0.655000000,9.855000000,2.468750000,-1.093750000,-2.843750000
1780364201.177873850,4.624494076,-531.385592572,163.014320423,-0.124243899,-0.005024307,-0.002242953,0.479265117,0.877652935,-0.010969359,0.000878882,0.999646130,0.243275964,0.387874683,-0.113677744,0.022000000,0.007250000,0.001750000,0.090000000,-0.155000000,9.770000000,0.687500000,-2.687500000,0.187500000
1780364201.277933598,4.724553823,-531.366757195,163.044356098,-0.132915157,-0.005025191,-0.001929290,0.479267431,0.877652411,-0.010670247,0.001430328,0.999647884,0.234385799,0.373876998,-0.106814202,0.012000000,0.001500000,0.010250000,0.045000000,-1.060000000,9.675000000,0.500000000,-3.500000000,1.218750000
1780364201.378004551,4.824624777,-531.347882686,163.074500825,-0.141338226,-0.005016419,-0.001560761,0.479271150,0.877651163,-0.010301591,0.002068844,0.999652582,0.132152929,0.211107621,-0.058128215,0.009500000,-0.007250000,0.005500000,0.105000000,0.645000000,9.845000000,-1.875000000,-1.718750000,2.312500000
1780364201.477976799,4.924597025,-531.324223416,163.112320996,-0.151385422,-0.004986102,-0.001030006,0.479275553,0.877649715,-0.009739612,0.002971469,0.999657885,0.211368202,0.337837796,-0.087401808,0.003250000,0.003000000,0.002250000,0.035000000,-0.570000000,9.770000000,0.250000000,-2.312500000,1.062500000
1780364201.577996731,5.024616957,-531.305250166,163.142686696,-0.158940408,-0.004938184,-0.000550594,0.479279089,0.877648487,-0.009195950,0.003767090,0.999662419,0.250845345,0.401862523,-0.097480765,0.032750000,0.010500000,0.019500000,0.050000000,-0.160000000,9.840000000,3.375000000,-0.812500000,1.781250000
1780364201.677984715,5.124604940,-531.283389484,163.177724721,-0.166999313,-0.004845685,0.000063010,0.479283130,0.877646966,-0.008445399,0.004755529,0.999668211,0.241527721,0.387499084,-0.085856347,0.026750000,0.002250000,0.009000000,0.035000000,-1.035000000,9.760000000,0.125000000,-2.000000000,1.687500000
1780364201.778106689,5.224726915,-531.262433007,163.211346032,-0.173995455,-0.004716272,0.000711416,0.479285608,0.877646032,-0.007596691,0.005769658,0.999671621,0.234962236,0.377133577,-0.075170685,0.024250000,0.022500000,0.005750000,-0.005000000,0.665000000,9.915000000,0.875000000,1.562500000,0.687500000
1780364201.877935410,5.324555635,-531.242387208,163.243529569,-0.179955412,-0.004571921,0.001374068,0.479287714,0.877644858,-0.006708104,0.006794471,0.999675569,0.238939607,0.383842700,-0.067656882,0.021250000,0.021750000,-0.009750000,-0.015000000,-0.125000000,9.850000000,-1.083333333,-0.208333333,-1.541666667
1780364201.978140116,5.424760342,-531.219416656,163.280405385,-0.185832064,-0.004395762,0.002169829,0.479289071,0.877643410,-0.005636084,0.008022440,0.999679522,0.185269145,0.297402227,-0.043841030,0.030000000,0.008250000,0.001500000,0.010000000,0.425000000,9.935000000,0.718750000,-0.312500000,-0.187500000
1780364202.077876329,5.524496555,-531.195414806,163.318916301,-0.190813175,-0.004202368,0.003029673,0.479288784,0.877641967,-0.004472383,0.009346368,0.999682109,0.240589960,0.385822559,-0.045014252,0.010250000,0.007750000,-0.010750000,-0.055000000,-0.510000000,9.830000000,-2.250000000,0.375000000,0.333333333
1780364202.178050756,5.624670982,-531.171345780,163.357529284,-0.194559595,-0.003991812,0.003909707,0.479287699,0.877640063,-0.003259192,0.010689288,0.999685510,0.241355741,0.387116650,-0.032437266,0.015250000,0.022500000,-0.001000000,-0.035000000,-0.070000000,9.835000000,0.125000000,0.531250000,1.312500000
1780364202.278041124,5.724661350,-531.147206812,163.396238828,-0.197020641,-0.003749727,0.004800952,0.479284528,0.877638440,-0.001979910,0.012021662,0.999687018,0.243012438,0.389618360,-0.019495019,0.030250000,0.017750000,-0.016750000,-0.045000000,0.735000000,9.945000000,1.156250000,1.406250000,-1.843750000
1780364202.377941608,5.824561834,-531.123964396,163.433484871,-0.198148591,-0.003494657,0.005648869,0.479279906,0.877636969,-0.000719364,0.013265540,0.999687445,0.174662031,0.279567558,-0.004661190,0.010000000,0.005500000,0.002500000,-0.080000000,-0.450000000,9.840000000,-0.250000000,-1.125000000,2.125000000
1780364202.477949381,5.924569607,-531.099673763,163.472360477,-0.198032172,-0.003221062,0.006503377,0.479273581,0.877635554,0.000580018,0.014503238,0.999686676,0.206365767,0.329906474,0.005439963,0.022750000,0.015000000,0.002750000,-0.120000000,-0.755000000,9.780000000,3.968750000,-1.687500000,0.375000000
1780364202.577888727,6.024508953,-531.075297199,163.511304764,-0.196612459,-0.002948493,0.007314269,0.479265591,0.877634492,0.001835783,0.015665372,0.999683841,0.211443682,0.337597687,0.016975935,0.022000000,0.016000000,0.001500000,-0.120000000,-0.030000000,9.850000000,-0.968750000,0.437500000,-1.531250000
1780364202.677903175,6.124523401,-531.056720259,163.540947628,-0.194682256,-0.002744108,0.007895667,0.479259351,0.877633524,0.002751880,0.016490030,0.999682125,0.198215850,0.316107809,0.023607365,-0.000500000,-0.004250000,-0.000750000,-0.170000000,-0.755000000,9.820000000,-1.000000000,-1.541666667,-0.375000000
1780364202.778091431,6.224711657,-531.029263832,163.584694665,-0.190551145,-0.002435999,0.008696447,0.479248584,0.877632744,0.004060334,0.017600380,0.999677016,0.249043063,0.396364366,0.042936326,0.011750000,0.008250000,-0.028750000,-0.135000000,0.730000000,9.955000000,-2.187500000,-0.750000000,-4.343750000
1780364202.878169298,6.324789524,-531.010583378,163.614421439,-0.186919161,-0.002225946,0.009194812,0.479241076,0.877632321,0.004906778,0.018273875,0.999673344,0.116377202,0.185220858,0.024300990,0.025000000,-0.004500000,-0.007500000,-0.130000000,0.755000000,9.980000000,0.531250000,-1.281250000,-1.562500000
1780364202.977874279,6.424494505,-530.994818262,163.639476022,-0.183372840,-0.002050516,0.009581834,0.479234243,0.877632340,0.005585703,0.018785114,0.999668961,0.147343739,0.234234118,0.034768701,0.018000000,0.007500000,0.019000000,-0.195000000,-0.745000000,9.780000000,-1.583333333,0.270833333,4.166666667
1780364203.077954054,6.524574280,-530.980995102,163.661411715,-0.179925049,-0.001899231,0.009893358,0.479227490,0.877632911,0.006149854,0.019186977,0.999663095,0.268116350,0.425257848,0.068769461,0.025500000,-0.000750000,0.022500000,-0.215000000,0.015000000,9.835000000,1.187500000,0.020833333,-0.083333333
1780364203.178283453,6.624903679,-530.961210895,163.692773565,-0.174479416,-0.001697652,0.010285341,0.479218898,0.877633510,0.006879414,0.019681884,0.999656140,0.099511509,0.157574682,0.028457969,0.025750000,0.008000000,0.037000000,-0.175000000,-0.740000000,9.775000000,0.343750000,1.531250000,9.687500000
1780364203.277920485,6.724540710,-530.941379428,163.724159887,-0.168474081,-0.001509134,0.010613669,0.479210506,0.877634528,0.007525014,0.020077579,0.999648275,0.238858867,0.377639336,0.074608939,0.011000000,0.013750000,-0.050000000,-0.175000000,0.040000000,9.815000000,-0.812500000,1.437500000,-10.343750000
1780364203.378023624,6.824643850,-530.917524296,163.761854574,-0.160617686,-0.001296450,0.010921683,0.479200867,0.877636351,0.008193535,0.020414471,0.999637698,0.241259475,0.380810175,0.081936563,0.006750000,0.004250000,-0.057500000,-0.195000000,0.070000000,9.820000000,-0.406250000,0.437500000,-10.843750000
1780364203.478127241,6.924747467,-530.896605832,163.794864796,-0.153249404,-0.001121260,0.011112935,0.479193300,0.877638324,0.008684315,0.020582329,0.999628262,0.242610440,0.382793565,0.087214142,0.020250000,0.004500000,-0.041250000,-0.180000000,0.040000000,9.790000000,1.125000000,0.937500000,-11.343750000
1780364203.578197002,7.024817228,-530.881635876,163.818455054,-0.147753608,-0.001000415,0.011205580,0.479187650,0.877640376,0.008985175,0.020629175,0.999619684,0.262059575,0.412703867,0.097143842,-0.004750000,0.000000000,0.039000000,-0.165000000,0.070000000,9.800000000,-1.479166667,0.354166667,-0.333333333
1780364203.677902937,7.124523163,-530.861645486,163.849924684,-0.140187032,-0.000853364,0.011267930,0.479181153,0.877643281,0.009302968,0.020597734,0.999608625,0.128689577,0.202389165,0.049223835,0.005750000,-0.010500000,-0.054750000,-0.155000000,0.050000000,9.780000000,-1.875000000,-0.500000000,-12.000000000
1780364203.778074741,7.224694967,-530.836607277,163.889281319,-0.130456298,-0.000697590,0.011246229,0.479174415,0.877647375,0.009555470,0.020410398,0.999594578,0.138310298,0.217328080,0.054202831,0.006750000,0.004750000,-0.053500000,-0.200000000,0.100000000,9.740000000,0.250000000,-0.843750000,-11.468750000
1780364203.877971411,7.324591637,-530.816536021,163.920777722,-0.122551119,-0.000595878,0.011150802,0.479169613,0.877651290,0.009642410,0.020145447,0.999582005,0.252794658,0.396675577,0.099790463,0.012500000,-0.001500000,-0.064000000,-0.195000000,0.805000000,9.840000000,1.875000000,0.468750000,-15.812500000
1780364203.978053570,7.424673796,-530.791404676,163.960162567,-0.112649494,-0.000497481,0.010936891,0.479165015,0.877656553,0.009609924,0.019675688,0.999566304,0.252209123,0.395171654,0.099084760,0.010750000,-0.002500000,-0.053750000,-0.150000000,0.840000000,9.845000000,0.468750000,-0.718750000,-15.343750000
1780364204.077993631,7.524613857,-530.771267276,163.991679607,-0.104807988,-0.000436664,0.010695387,0.479161817,0.877661308,0.009485045,0.019193499,0.999552618,0.260131622,0.407163225,0.100686595,-0.001000000,-0.010000000,-0.059000000,-0.150000000,0.820000000,9.810000000,-0.937500000,0.468750000,-13.562500000
1780364204.177937746,7.624557972,-530.751104665,164.023204281,-0.097121173,-0.000392091,0.010393748,0.479159236,0.877666362,0.009274012,0.018621310,0.999538564,0.254354566,0.397720300,0.096017490,0.002250000,-0.018000000,-0.069750000,-0.135000000,0.840000000,9.815000000,0.781250000,-2.468750000,-16.468750000
1780364204.277903318,7.724523544,-530.730917645,164.054734643,-0.089664461,-0.000365724,0.010033845,0.479157218,0.877671663,0.008975176,0.017964288,0.999524210,0.252233118,0.393990114,0.091880643,0.015750000,-0.012500000,-0.078500000,-0.120000000,0.050000000,9.680000000,-0.083333333,-0.104166667,-0.458333333
1780364204.377892256,7.824512482,-530.710706795,164.086268552,-0.082510629,-0.000360080,0.009617918,0.479155696,0.877677153,0.008586272,0.017228776,0.999509625,0.133485205,0.208281506,0.046392295,-0.013750000,0.001750000,-0.087250000,-0.115000000,0.045000000,9.690000000,-1.895833333,1.333333333,-1.895833333
1780364204.478008270,7.924628496,-530.690473652,164.117804366,-0.075728918,-0.000376032,0.009149844,0.479154571,0.877682765,0.008109488,0.016422413,0.999494894,0.248343583,0.387106780,0.081344750,0.003750000,-0.007000000,0.089250000,-0.165000000,0.040000000,9.670000000,-2.343750000,0.312500000,21.687500000
1780364204.578007936,8.024628162,-530.661100329,164.163531901,-0.066687853,-0.000432829,0.008391529,0.479153017,0.877691165,0.007282773,0.015145703,0.999472678,0.258396793,0.401922076,0.075722999,0.007750000,-0.013250000,-0.088750000,-0.105000000,0.790000000,9.770000000,1.500000000,-0.708333333,-15.166666667
1780364204.677932501,8.124552727,-530.638797485,164.198222812,-0.060551956,-0.000500271,0.007764036,0.479152217,0.877697341,0.006562837,0.014108828,0.999456500,0.261244913,0.406428034,0.068827732,0.000000000,0.022750000,0.084000000,-0.140000000,-0.730000000,9.560000000,1.281250000,4.375000000,20.843750000
1780364204.777861118,8.224481344,-530.619522878,164.228181130,-0.055814060,-0.000572027,0.007194521,0.479151115,0.877702752,0.005890932,0.013177857,0.999441897,0.257685160,0.400301616,0.060627271,0.006500000,-0.020250000,0.089500000,-0.070000000,0.035000000,9.690000000,1.395833333,0.062500000,-0.895833333
1780364204.877931118,8.324551344,-530.594151593,164.267598882,-0.050440670,-0.000691349,0.006412230,0.479150247,0.877709204,0.004931608,0.011918949,0.999424765,0.251790364,0.391223044,0.049284380,0.009750000,-0.017500000,-0.100750000,-0.120000000,-0.030000000,9.640000000,1.281250000,-0.531250000,-23.906250000
1780364204.977884054,8.424504280,-530.573843881,164.299127585,-0.046891573,-0.000804633,0.005767996,0.479149007,0.877714254,0.004115240,0.010896599,0.999410780,0.255584638,0.396913466,0.041428047,-0.005000000,0.012000000,-0.100250000,-0.055000000,-0.020000000,9.640000000,-1.375000000,1.312500000,-24.406250000
1780364205.077948570,8.524568796,-530.553530261,164.330651324,-0.044041584,-0.000933878,0.005113714,0.479147460,0.877719026,0.003261245,0.009871899,0.999397166,0.260031276,0.403657955,0.033065314,-0.004000000,-0.005250000,0.119000000,-0.060000000,-0.750000000,9.560000000,-0.750000000,0.270833333,19.020833333
1780364205.177923203,8.624543428,-530.528136491,164.370049946,-0.041495369,-0.001115119,0.004292069,0.479145359,0.877724364,0.002155597,0.008603222,0.999381538,0.267279678,0.414804631,0.021981656,0.004500000,-0.017500000,-0.115250000,0.005000000,0.710000000,9.745000000,1.656250000,-2.062500000,-26.593750000
1780364205.277872801,8.724493027,-530.507821667,164.401562546,-0.040288080,-0.001270025,0.003641987,0.479142950,0.877728407,0.001260628,0.007610472,0.999368958,0.150130611,0.232991875,0.006866480,0.003000000,-0.004250000,-0.114750000,-0.025000000,-0.040000000,9.650000000,0.833333333,0.187500000,-0.291666667
1780364205.377974272,8.824594498,-530.483450127,164.439370962,-0.039820863,-0.001465783,0.002880124,0.479139535,0.877732797,0.000186835,0.006460633,0.999354563,0.288031525,0.447066001,0.000515948,-0.014750000,-0.012500000,0.108750000,-0.005000000,-0.020000000,9.655000000,-1.875000000,-0.718750000,31.406250000
1780364205.477894306,8.924514532,-530.463148363,164.470871712,-0.040246072,-0.001636557,0.002267487,0.479136293,0.877736061,-0.000700071,0.005548806,0.999343198,0.120779966,0.187565649,-0.004390367,-0.000750000,-0.002250000,0.130500000,-0.025000000,-0.020000000,9.630000000,-0.812500000,0.000000000,33.500000000
1780364205.577924490,9.024544716,-530.441840011,164.503939708,-0.041477150,-0.001821825,0.001653318,0.479132223,0.877739290,-0.001613877,0.004648171,0.999331150,0.258901899,0.401698276,-0.018628537,0.012000000,-0.015500000,0.118250000,-0.010000000,-0.050000000,9.660000000,3.500000000,-1.031250000,29.625000000
1780364205.678043365,9.124663591,-530.421560252,164.535427459,-0.043377774,-0.002005181,0.001100884,0.479128440,0.877741822,-0.002465153,0.003854072,0.999321083,0.252288159,0.391612636,-0.026891581,-0.002750000,-0.014500000,-0.131000000,0.050000000,0.705000000,9.675000000,1.208333333,-0.395833333,-21.458333333
1780364205.778017282,9.224637508,-530.396230574,164.574777835,-0.046712363,-0.002237100,0.000466024,0.479123170,0.877744704,-0.003480662,0.002961798,0.999308666,0.241538941,0.375230878,-0.035743035,-0.005500000,-0.002750000,0.138500000,0.005000000,-0.860000000,9.585000000,-0.562500000,0.875000000,34.218750000
1780364205.877948523,9.324568748,-530.371943272,164.612547933,-0.050858846,-0.002460472,-0.000076935,0.479118366,0.877746849,-0.004393091,0.002222657,0.999298451,0.258538515,0.402047854,-0.047874979,0.018750000,0.004250000,-0.143500000,-0.000000000,-0.065000000,9.655000000,2.750000000,-0.375000000,-34.968750000
1780364205.977921963,9.424542189,-530.346678597,164.651886509,-0.056084909,-0.002690301,-0.000564601,0.479113808,0.877748485,-0.005263862,0.001586765,0.999289587,0.253189471,0.394572232,-0.055915644,-0.000500000,-0.017750000,-0.145250000,0.100000000,0.680000000,9.745000000,0.156250000,-2.156250000,-36.218750000
1780364206.078002214,9.524622440,-530.323463957,164.688071000,-0.061630355,-0.002894114,-0.000935641,0.479109226,0.877750020,-0.005977204,0.001130676,0.999280869,0.294873911,0.459524431,-0.073530226,-0.011000000,0.010000000,-0.152750000,0.045000000,-0.140000000,9.680000000,-0.562500000,0.333333333,-0.770833333
1780364206.177883148,9.624503374,-530.300284673,164.724253898,-0.067798010,-0.003094425,-0.001230975,0.479105697,0.877750899,-0.006611853,0.000804134,0.999274554,0.269456692,0.420609379,-0.074302604,0.009250000,0.000250000,-0.174750000,0.045000000,0.610000000,9.775000000,0.625000000,0.520833333,-27.708333333
1780364206.277998686,9.724618912,-530.283170938,164.750994362,-0.072704080,-0.003234967,-0.001396401,0.479102820,0.877751715,-0.007017095,0.000648377,0.999269103,0.239422037,0.374120893,-0.069976762,0.003750000,-0.017750000,0.140250000,0.020000000,-0.095000000,9.695000000,0.468750000,-3.125000000,39.000000000
1780364206.378031254,9.824651480,-530.261057463,164.785602648,-0.079422006,-0.003412065,-0.001545219,0.479100649,0.877751980,-0.007470596,0.000556807,0.999265233,0.257451033,0.403250828,-0.079943416,0.001500000,0.004000000,0.169500000,0.050000000,-0.100000000,9.675000000,0.593750000,1.437500000,41.812500000
1780364206.477886200,9.924506426,-530.238970222,164.820207775,-0.086474996,-0.003571275,-0.001613140,0.479097682,0.877752844,-0.007815178,0.000590104,0.999258971,0.250145316,0.392050532,-0.081143204,-0.000500000,0.008750000,-0.170750000,0.090000000,0.640000000,9.805000000,-0.520833333,0.437500000,-26.895833333
1780364206.577933073,10.024553299,-530.216922021,164.854819627,-0.093772407,-0.003721265,-0.001605191,0.479096628,0.877752810,-0.008070876,0.000747769,0.999256441,0.264131722,0.414991931,-0.088364795,0.005750000,0.022500000,-0.166000000,0.090000000,0.630000000,9.805000000,-0.083333333,0.812500000,-27.833333333
1780364206.677939415,10.124559641,-530.196902326,164.886286276,-0.100540276,-0.003842305,-0.001529186,0.479095545,0.877753016,-0.008210538,0.000997168,0.999253267,0.154271015,0.242806709,-0.052477647,0.005250000,0.002250000,0.166250000,0.070000000,-0.900000000,9.660000000,-0.343750000,0.625000000,41.625000000
1780364206.777929544,10.224549770,-530.173094559,164.923734418,-0.108745361,-0.003951380,-0.001305661,0.479030578,0.877788350,-0.008187955,0.001493477,0.999103338,0.245071171,0.385138358,-0.085352753,0.000750000,0.008000000,-0.191750000,-0.030000000,-0.165000000,9.755000000,-2.281250000,-0.937500000,-47.468750000
1780364206.877861977,10.324482203,-530.155527065,164.951262190,-0.114904603,-0.004060288,-0.001050128,0.478873703,0.877873788,-0.008134705,0.002044973,0.998743866,0.037942311,0.059235075,-0.013327777,0.020500000,0.022750000,0.185000000,-0.075000000,-0.175000000,9.750000000,0.895833333,0.958333333,1.416666667
1780364206.978003263,10.424623489,-530.132457835,164.987292764,-0.123019186,-0.004235690,-0.000646960,0.478534450,0.878058324,-0.008057673,0.002917715,0.997968032,0.228038222,0.355684085,-0.080013639,0.008250000,0.023750000,-0.203250000,-0.125000000,-0.180000000,9.805000000,-0.937500000,0.125000000,-47.718750000
1780364207.078005314,10.524625540,-530.112585636,165.018262183,-0.129927256,-0.004362128,-0.000258216,0.478126492,0.878280116,-0.007909397,0.003717735,0.997036377,0.233246314,0.363475887,-0.080455838,0.014750000,0.018500000,-0.201250000,-0.080000000,-0.155000000,9.770000000,0.625000000,0.156250000,-45.062500000
1780364207.177922964,10.624543190,-530.094845615,165.045882619,-0.135933260,-0.004413220,0.000116957,0.477675531,0.878525240,-0.007642664,0.004421687,0.996007622,0.243895866,0.379557277,-0.081517932,0.010500000,0.002500000,-0.210250000,-0.070000000,-0.185000000,9.825000000,-0.656250000,-1.812500000,-48.937500000
1780364207.277910709,10.724530935,-530.080078165,165.068871068,-0.140754235,-0.004408038,0.000446626,0.477241201,0.878761177,-0.007321086,0.004992371,0.995017681,0.238290346,0.370707901,-0.076690885,0.017250000,0.027750000,0.192750000,-0.090000000,-0.190000000,9.810000000,-0.083333333,1.750000000,2.395833333
1780364207.377995491,10.824615717,-530.061820777,165.097269374,-0.146417156,-0.004359140,0.000875290,0.476633602,0.879090804,-0.006829937,0.005694375,0.993633990,0.091899276,0.142795245,-0.027799950,0.016750000,0.003000000,0.182000000,-0.065000000,-0.920000000,9.740000000,0.250000000,-1.750000000,49.937500000
1780364207.477870226,10.924490452,-530.043767740,165.125298757,-0.151633179,-0.004299163,0.001323644,0.475960237,0.879455296,-0.006302011,0.006420676,0.992101818,0.225797625,0.350094763,-0.063296306,0.007000000,0.007000000,-0.229500000,-0.095000000,-0.110000000,9.810000000,-2.062500000,-0.343750000,-52.125000000
1780364207.577943563,11.024563789,-530.022354044,165.158459806,-0.157271807,-0.004249203,0.001900187,0.475073721,0.879933687,-0.005672761,0.007381515,0.990086377,0.221461632,0.342407540,-0.055755587,0.021250000,0.006500000,-0.230500000,-0.065000000,-0.140000000,9.835000000,0.312500000,-0.906250000,-51.093750000
1780364207.677901983,11.124522209,-530.003837032,165.187077030,-0.161635691,-0.004224839,0.002456784,0.474234826,0.880384828,-0.005108983,0.008333059,0.988180991,0.223198070,0.344899267,-0.050332170,0.022250000,0.015750000,-0.239000000,-0.085000000,-0.095000000,9.830000000,2.031250000,0.125000000,-52.625000000
1780364207.778089046,11.224709272,-529.986388009,165.214014076,-0.165274466,-0.004194228,0.003043714,0.473385561,0.880840085,-0.004507400,0.009333160,0.986254036,0.210922790,0.325723528,-0.041782552,0.007000000,0.012250000,-0.248250000,-0.110000000,-0.145000000,9.830000000,-3.000000000,-3.062500000,-55.750000000
1780364207.877933979,11.324554205,-529.969112510,165.240671044,-0.168368423,-0.004140708,0.003678662,0.472491770,0.881317678,-0.003822500,0.010397228,0.984228396,0.220609378,0.340527378,-0.036905124,0.007250000,0.020500000,0.189750000,-0.120000000,-0.845000000,9.715000000,0.062500000,-0.520833333,36.791666667
1780364207.978056908,11.424677134,-529.953695827,165.264441959,-0.170644312,-0.004072228,0.004271716,0.471652515,0.881764750,-0.003152172,0.011374896,0.982328500,0.199655797,0.307712158,-0.027001400,0.030000000,0.004500000,-0.254000000,-0.160000000,-0.105000000,9.870000000,-0.375000000,-0.968750000,-55.656250000
1780364208.077995539,11.524615765,-529.932451240,165.297134327,-0.172937752,-0.003960095,0.005085639,0.470436962,0.882410062,-0.002204090,0.012701531,0.979579935,0.200747975,0.308580308,-0.017583424,-0.006500000,0.021250000,-0.269250000,-0.130000000,-0.065000000,9.860000000,-3.937500000,1.593750000,-56.968750000
1780364208.177948713,11.624568939,-529.918100336,165.319166914,-0.173894541,-0.003884164,0.005608449,0.469581058,0.882863006,-0.001591274,0.013551260,0.977646385,0.214982579,0.329921128,-0.011746584,0.017000000,0.022250000,-0.245500000,-0.160000000,-0.015000000,9.860000000,0.812500000,1.000000000,-55.406250000
1780364208.277871370,11.724491596,-529.901300927,165.344893774,-0.174390545,-0.003789302,0.006184296,0.468545603,0.883409539,-0.000899857,0.014477959,0.975308923,0.198308264,0.303594260,-0.002875332,0.019000000,0.015250000,0.213750000,-0.190000000,-0.805000000,9.760000000,0.791666667,0.520833333,41.187500000
1780364208.378059149,11.824679375,-529.884593664,165.370426830,-0.174220785,-0.003679008,0.006721856,0.467482273,0.883969234,-0.000219589,0.015324170,0.972910424,0.217513927,0.332389902,0.005405485,0.029000000,0.001000000,0.212500000,-0.160000000,-0.810000000,9.790000000,1.041666667,-1.270833333,40.229166667
1780364208.477938652,11.924558878,-529.863842463,165.402088743,-0.173111078,-0.003508299,0.007355465,0.466117844,0.884685111,0.000649633,0.016285822,0.969835655,0.222196220,0.338928637,0.016082468,0.017750000,0.013750000,-0.274750000,-0.135000000,0.735000000,9.925000000,-0.875000000,0.406250000,-60.812500000
1780364208.577996731,12.024616957,-529.847339832,165.427219450,-0.171537697,-0.003350241,0.007839994,0.465000179,0.885269532,0.001359662,0.016997559,0.967319364,0.104196941,0.158645255,0.011363228,0.002750000,0.024000000,-0.292500000,-0.130000000,0.705000000,9.915000000,-1.187500000,0.781250000,-63.875000000
1780364208.677907705,12.124527931,-529.830913711,165.452175890,-0.169382206,-0.003192539,0.008301021,0.463861792,0.885862934,0.002045070,0.017669846,0.964758258,0.207757644,0.315500143,0.030011696,0.005500000,0.014250000,0.213500000,-0.195000000,-0.025000000,9.880000000,-2.218750000,0.937500000,63.218750000
1780364208.777892113,12.224512339,-529.810467732,165.483130876,-0.165911112,-0.003017171,0.008831951,0.462412248,0.886615930,0.002818344,0.018452498,0.961499154,0.204493830,0.308957599,0.038090817,0.011750000,0.012000000,0.228000000,-0.195000000,-0.780000000,9.725000000,-0.531250000,-0.375000000,64.718750000
1780364208.877883673,12.324503899,-529.790104844,165.513837937,-0.161639155,-0.002867201,0.009296995,0.460936693,0.887379688,0.003482705,0.019144296,0.958183343,0.207389464,0.312136282,0.046639348,0.012250000,0.017250000,0.231000000,-0.210000000,-0.720000000,9.745000000,0.437500000,1.593750000,68.937500000
1780364208.977922201,12.424542427,-529.773870796,165.538245413,-0.157698982,-0.002749412,0.009613523,0.459739731,0.887997410,0.003957266,0.019602851,0.955494747,0.200318179,0.300721212,0.050666518,0.008750000,0.005500000,-0.290000000,-0.195000000,-0.010000000,9.805000000,0.375000000,-0.281250000,-66.562500000
1780364209.077860355,12.524480581,-529.753642618,165.568579066,-0.152195281,-0.002584827,0.009930391,0.458225035,0.888776982,0.004506956,0.020022008,0.952093836,0.201848438,0.302458568,0.057378271,0.010750000,0.002250000,0.243500000,-0.205000000,-0.785000000,9.745000000,-0.687500000,-0.937500000,46.729166667
1780364209.177905560,12.624525785,-529.737500387,165.592712406,-0.147387803,-0.002437236,0.010113026,0.456999434,0.889406152,0.004908933,0.020218183,0.949342872,0.203445585,0.304003418,0.062201378,0.008500000,0.007750000,-0.321750000,-0.200000000,0.725000000,9.865000000,-0.031250000,0.250000000,-69.031250000
1780364209.277961254,12.724581480,-529.717361509,165.622716676,-0.140957484,-0.002252994,0.010241390,0.455452739,0.890198203,0.005318835,0.020287390,0.945871605,0.200595235,0.298472279,0.065745204,0.020000000,0.005000000,0.263750000,-0.180000000,-0.000000000,9.780000000,1.937500000,-0.031250000,71.937500000
1780364209.377990484,12.824610710,-529.697250614,165.652537084,-0.134167155,-0.002083498,0.010260811,0.453890392,0.890996009,0.005602960,0.020177412,0.942365469,0.191575223,0.283416226,0.065782554,0.007750000,0.002000000,-0.319000000,-0.180000000,0.750000000,9.860000000,0.604166667,-0.937500000,-46.937500000
1780364209.477892399,12.924512625,-529.677170856,165.682180843,-0.127147934,-0.001933029,0.010183818,0.452314601,0.891798214,0.005766010,0.019913812,0.938829697,0.205557139,0.302829984,0.072479391,-0.000500000,-0.001750000,0.256000000,-0.190000000,-0.730000000,9.685000000,-0.312500000,0.500000000,72.000000000
1780364209.577880383,13.024500608,-529.661133718,165.705776306,-0.121460840,-0.001819951,0.010064524,0.451045362,0.892442421,0.005831865,0.019607033,0.935982577,0.211564476,0.310750938,0.075122124,0.014000000,-0.010250000,0.268000000,-0.195000000,0.015000000,9.750000000,0.250000000,0.479166667,-0.166666667
1780364209.677906513,13.124526739,-529.641119315,165.735128977,-0.114373318,-0.001682826,0.009850940,0.449448990,0.893250095,0.005849723,0.019112559,0.932403001,0.197918443,0.289953047,0.069797648,0.017000000,-0.019250000,-0.337250000,-0.170000000,0.025000000,9.775000000,-0.437500000,-3.562500000,-76.781250000
1780364209.777875662,13.224495888,-529.625124228,165.758499423,-0.108793998,-0.001578874,0.009627387,0.448164173,0.893898034,0.005807635,0.018628073,0.929523153,0.132518523,0.193482758,0.045888320,0.014250000,0.006250000,-0.348250000,-0.130000000,0.760000000,9.790000000,1.156250000,-0.656250000,-77.062500000
1780364209.877910376,13.324530602,-529.605142189,165.787578765,-0.102021481,-0.001468525,0.009273554,0.446550117,0.894709359,0.005655343,0.017906768,0.925906546,0.202804697,0.294709801,0.067640183,0.010000000,0.006000000,0.272500000,-0.140000000,0.005000000,9.735000000,0.687500000,0.437500000,77.000000000
1780364209.977956057,13.424576283,-529.583562122,165.818821219,-0.095066246,-0.001371546,0.008798388,0.444796627,0.895587331,0.005371109,0.016980383,0.921979335,0.161174015,0.232866555,0.050528601,0.017500000,0.002500000,-0.351500000,-0.105000000,0.755000000,9.760000000,1.729166667,0.979166667,-53.187500000
1780364210.078084230,13.524704456,-529.565181884,165.845311786,-0.089528257,-0.001299885,0.008324498,0.443295560,0.896335908,0.005050833,0.016076252,0.918619477,0.114355357,0.164398779,0.033331339,-0.007000000,-0.021500000,0.290750000,-0.185000000,-0.785000000,9.635000000,-1.875000000,0.250000000,80.843750000
1780364210.177971601,13.624591827,-529.546009442,165.872841047,-0.084218989,-0.001228619,0.007775198,0.441722818,0.897117043,0.004665080,0.015036510,0.915101759,0.196768890,0.281936481,0.052323484,0.000500000,0.000250000,-0.355500000,-0.115000000,-0.015000000,9.710000000,-0.562500000,-0.156250000,-80.468750000
1780364210.277900934,13.724521160,-529.526044592,165.901395515,-0.079286702,-0.001160692,0.007157107,0.440077942,0.897930306,0.004215347,0.013875201,0.911425952,0.192849398,0.275473162,0.045108825,0.023500000,0.009250000,-0.354000000,-0.065000000,0.720000000,9.785000000,1.812500000,1.656250000,-78.968750000
1780364210.377983332,13.824603558,-529.506877447,165.928685939,-0.075198848,-0.001110479,0.006531358,0.438492253,0.898710550,0.003732212,0.012713816,0.907885848,0.202160189,0.287496597,0.040329860,0.001750000,-0.011250000,-0.357250000,-0.115000000,0.020000000,9.680000000,-0.229166667,0.770833333,0.187500000
1780364210.477977037,13.924597263,-529.490902912,165.951336814,-0.072317587,-0.001086848,0.005992670,0.437166414,0.899360013,0.003284884,0.011729671,0.904928607,0.202200651,0.286473102,0.034131412,-0.004500000,-0.002250000,0.296250000,-0.060000000,-0.015000000,9.675000000,0.156250000,0.968750000,83.968750000
1780364210.578104258,14.024724483,-529.473329152,165.976159498,-0.069731429,-0.001078437,0.005390934,0.435703535,0.900073444,0.002756514,0.010644432,0.901668814,0.196011448,0.276284552,0.026135260,-0.017250000,-0.010000000,-0.370750000,-0.035000000,0.690000000,9.720000000,-0.750000000,-0.500000000,-56.354166667
1780364210.677881002,14.124501228,-529.461348396,165.993031626,-0.068330971,-0.001081065,0.004979316,0.434703886,0.900559032,0.002382049,0.009908384,0.899443222,0.214427378,0.301840369,0.023288919,-0.012000000,0.001250000,-0.385000000,-0.050000000,0.700000000,9.745000000,0.093750000,1.125000000,-86.187500000
1780364210.778057814,14.224678040,-529.446169669,166.014340741,-0.066989604,-0.001085730,0.004463201,0.433433948,0.901173632,0.001912222,0.008985544,0.896618298,0.127156512,0.178325737,0.009625355,-0.001500000,-0.003000000,-0.396500000,0.005000000,0.695000000,9.750000000,-0.656250000,-0.187500000,-86.156250000
1780364210.877940893,14.324561119,-529.430990749,166.035585038,-0.066137764,-0.001093808,0.003954666,0.432160885,0.901787189,0.001445387,0.008078025,0.893789116,0.189228218,0.264559402,0.008201765,0.013000000,-0.011250000,-0.362250000,-0.035000000,0.695000000,9.725000000,-0.593750000,-2.125000000,-84.093750000
1780364210.978019476,14.424639702,-529.417410695,166.054541088,-0.065791892,-0.001107765,0.003506966,0.431019960,0.902334898,0.001024021,0.007283918,0.891255829,0.197798201,0.275934393,0.003021267,-0.004000000,-0.020000000,0.301500000,-0.040000000,-0.795000000,9.570000000,-1.312500000,-1.104166667,57.187500000
1780364211.077930689,14.524550915,-529.401428417,166.076775031,-0.065884728,-0.001130738,0.002993921,0.429674376,0.902978233,0.000530769,0.006378633,0.888270840,0.203175729,0.282443863,-0.003736479,0.014500000,-0.014750000,0.316750000,-0.050000000,-0.800000000,9.595000000,0.833333333,-2.000000000,60.520833333
1780364211.177928209,14.624548435,-529.385440973,166.098937909,-0.066508593,-0.001164374,0.002499456,0.428325794,0.903620170,0.000036860,0.005514609,0.885282093,0.101147435,0.140116683,-0.005190242,0.006250000,-0.013500000,0.330250000,-0.055000000,-0.750000000,9.590000000,1.333333333,-0.666666667,61.625000000
1780364211.277947664,14.724567890,-529.369449342,166.121030784,-0.067649008,-0.001207565,0.002030582,0.426974349,0.904260650,-0.000449899,0.004703568,0.882289859,0.200402872,0.276681902,-0.016676052,-0.007500000,0.001250000,-0.419250000,0.015000000,0.690000000,9.760000000,-0.062500000,0.500000000,-94.000000000
1780364211.377972364,14.824592590,-529.349458466,166.148552331,-0.069771736,-0.001271428,0.001492093,0.425281558,0.905058978,-0.001032323,0.003782302,0.878545765,0.195470965,0.268817690,-0.023700672,-0.016250000,-0.015750000,-0.414000000,0.015000000,-0.055000000,9.690000000,-1.250000000,-1.625000000,-0.625000000
1780364211.477914572,14.924534798,-529.333463776,166.170493871,-0.071998362,-0.001325542,0.001108737,0.423924134,0.905696054,-0.001461043,0.003132221,0.875546446,0.201897988,0.276812846,-0.030252415,0.017500000,0.006250000,-0.409500000,-0.010000000,-0.080000000,9.675000000,0.833333333,1.229166667,0.250000000
1780364211.577935934,15.024556160,-529.317467765,166.192369742,-0.074662523,-0.001383796,0.000771730,0.422564281,0.906331572,-0.001856152,0.002568375,0.872544291,0.193160209,0.264008835,-0.034073307,-0.003750000,-0.004750000,-0.425750000,0.045000000,-0.085000000,9.685000000,-0.520833333,-0.729166667,-0.729166667
1780364211.677919626,15.124539852,-529.301468451,166.214180245,-0.077728330,-0.001448462,0.000483054,0.421202147,0.906965501,-0.002220491,0.002096419,0.869539498,0.207430849,0.282594565,-0.041598949,0.010000000,-0.008250000,-0.408500000,0.045000000,-0.075000000,9.730000000,0.250000000,-1.395833333,1.041666667
1780364211.778170586,15.224790812,-529.285463773,166.235926202,-0.081154386,-0.001520962,0.000243884,0.419837869,0.907597813,-0.002556067,0.001719812,0.866532250,0.104465572,0.141848087,-0.023185743,0.009750000,0.008750000,-0.414250000,0.020000000,-0.090000000,9.700000000,0.729166667,1.375000000,0.250000000
1780364211.878188610,15.324808836,-529.269452503,166.257609498,-0.084894909,-0.001600162,0.000055721,0.418471559,0.908228490,-0.002859997,0.001440459,0.863522697,0.201685932,0.272963396,-0.048480708,-0.006000000,0.001250000,0.342250000,0.030000000,-0.120000000,9.710000000,-4.218750000,2.031250000,96.750000000
1780364211.977965593,15.424585819,-529.247824534,166.286786043,-0.090356949,-0.001710623,-0.000113244,0.416623629,0.909077451,-0.003204545,0.001219477,0.859455572,0.192581510,0.259356456,-0.050173847,0.003250000,-0.000500000,0.360250000,0.035000000,-0.125000000,9.690000000,-0.937500000,1.375000000,99.125000000
1780364212.077917099,15.524537325,-529.233398964,166.306180127,-0.094206170,-0.001785014,-0.000170562,0.415390035,0.909641635,-0.003389153,0.001172654,0.856742559,0.210544421,0.282603453,-0.056880144,0.007750000,0.007250000,0.359500000,-0.005000000,-0.080000000,9.745000000,1.000000000,1.281250000,100.187500000
1780364212.177859545,15.624479771,-529.217361408,166.327676396,-0.098625250,-0.001866900,-0.000181360,0.414017698,0.910266899,-0.003548937,0.001215687,0.853726250,0.196916597,0.263461928,-0.054782880,-0.016750000,0.007750000,-0.434250000,0.095000000,0.635000000,9.815000000,-2.062500000,0.520833333,-64.375000000
1780364212.277875662,15.724495888,-529.201311660,166.349117695,-0.103143570,-0.001949452,-0.000137041,0.412643658,0.910890439,-0.003664584,0.001359201,0.850708106,0.202015619,0.269370688,-0.057155265,0.003750000,0.026750000,-0.433750000,0.070000000,0.635000000,9.830000000,-1.208333333,1.708333333,-67.666666667
1780364212.377916336,15.824536562,-529.185246854,166.370504487,-0.107708293,-0.002034415,-0.000038669,0.411267972,0.911512213,-0.003740609,0.001602886,0.847688245,0.043657500,0.057848687,-0.012391447,0.008250000,0.005500000,0.366250000,0.020000000,-0.830000000,9.655000000,-0.968750000,-0.218750000,102.312500000
1780364212.477970600,15.924590826,-529.165139591,166.397161801,-0.113398347,-0.002142791,0.000159302,0.409545760,0.912287046,-0.003779215,0.002045801,0.843910395,0.126068018,0.166753400,-0.035461223,0.030250000,0.003750000,0.372750000,0.025000000,-0.870000000,9.685000000,1.656250000,-1.906250000,104.531250000
1780364212.578123808,16.024744034,-529.149032639,166.418431244,-0.117873290,-0.002231073,0.000375356,0.408166477,0.912904709,-0.003767120,0.002506629,0.840886997,0.197314899,0.260046469,-0.054298681,0.000500000,0.011750000,-0.460500000,0.030000000,-0.110000000,9.760000000,-0.781250000,1.375000000,-104.812500000
1780364212.677920341,16.124540567,-529.128868860,166.444951257,-0.123286194,-0.002339548,0.000714210,0.406440491,0.913673981,-0.003694628,0.003206890,0.837106468,0.200405421,0.263213974,-0.052768566,0.018000000,-0.001750000,-0.461250000,0.045000000,0.645000000,9.840000000,1.031250000,-1.593750000,-105.093750000
1780364212.777957439,16.224577665,-529.108664283,166.471398704,-0.128409023,-0.002442688,0.001123494,0.404712024,0.914440238,-0.003558039,0.004031917,0.833323805,0.199644481,0.260940538,-0.049226165,0.004000000,0.017000000,-0.452250000,0.005000000,0.615000000,9.890000000,-2.343750000,0.750000000,-105.281250000
1780364212.877896786,16.324517012,-529.090840130,166.494610449,-0.132606166,-0.002526092,0.001535958,0.403187903,0.915112438,-0.003384804,0.004848146,0.829991215,0.205814262,0.267460019,-0.046951528,0.018250000,0.016250000,-0.464500000,0.005000000,-0.140000000,9.815000000,0.708333333,0.375000000,0.250000000
1780364212.977969885,16.424590111,-529.080290842,166.508304196,-0.134925380,-0.002577167,0.001797649,0.402287146,0.915508153,-0.003272545,0.005365072,0.828022939,0.219185718,0.284376110,-0.047357673,0.019000000,0.022000000,0.402750000,0.000000000,-0.885000000,9.705000000,1.020833333,0.750000000,73.250000000
1780364213.077982426,16.524602652,-529.064027544,166.529333889,-0.138230644,-0.002651808,0.002225322,0.400899511,0.916115494,-0.003074527,0.006203561,0.824992714,0.030893088,0.039981251,-0.005977574,0.015000000,0.007250000,-0.477500000,-0.000000000,-0.085000000,9.820000000,1.687500000,0.562500000,-109.343750000
1780364213.177988768,16.624608994,-529.048538429,166.549272009,-0.141047676,-0.002718119,0.002655775,0.399579418,0.916690705,-0.002861038,0.007041317,0.822112220,0.122974936,0.158053448,-0.021307936,0.004250000,0.015000000,0.408750000,-0.005000000,-0.840000000,9.740000000,-1.270833333,0.041666667,75.062500000
1780364213.277943611,16.724563837,-529.031376496,166.571269290,-0.143763075,-0.002788713,0.003152530,0.398119414,0.917323943,-0.002606226,0.008004350,0.818929009,0.201451493,0.257849197,-0.029901932,0.006250000,0.020500000,0.391500000,-0.035000000,-0.820000000,9.740000000,-0.583333333,1.020833333,74.020833333
1780364213.377995968,16.824616194,-529.013341508,166.594266164,-0.146128334,-0.002853808,0.003692695,0.396587602,0.917985018,-0.002310648,0.009043370,0.815592214,0.207653021,0.264088653,-0.024937620,0.012000000,0.001250000,-0.490250000,-0.035000000,0.650000000,9.885000000,-0.312500000,-2.031250000,-114.531250000
1780364213.478041410,16.924661636,-528.994424130,166.618259378,-0.148048329,-0.002915427,0.004269867,0.394984447,0.918673258,-0.001983692,0.010148496,0.812103271,0.203743893,0.257950234,-0.018217404,0.021250000,0.005750000,-0.481250000,-0.035000000,0.635000000,9.905000000,0.406250000,-0.843750000,-110.906250000
1780364213.578002691,17.024622917,-528.977087592,166.640119013,-0.149289806,-0.002963272,0.004801894,0.393518183,0.919299516,-0.001669109,0.011161193,0.808915167,0.213726731,0.268806718,-0.012956358,0.019250000,0.015000000,-0.499500000,-0.055000000,0.625000000,9.920000000,0.687500000,-2.343750000,-113.531250000
1780364213.678038597,17.124658823,-528.961351344,166.659862714,-0.149983458,-0.003004578,0.005279345,0.392190783,0.919863843,-0.001386686,0.012069585,0.806031311,0.119201351,0.149235936,-0.004020310,0.012000000,0.012750000,-0.513000000,-0.055000000,0.660000000,9.895000000,1.687500000,-0.875000000,-116.968750000
1780364213.777925253,17.224545479,-528.942228096,166.683714423,-0.150272894,-0.003044833,0.005847906,0.390581313,0.920544822,-0.001037735,0.013145408,0.802537583,0.213517096,0.265854955,-0.000599858,0.010750000,-0.000750000,0.429500000,-0.075000000,-0.050000000,9.830000000,-1.593750000,-2.437500000,117.218750000
1780364213.877933025,17.324553251,-528.925535127,166.704416275,-0.150037057,-0.003073406,0.006326417,0.389180509,0.921134660,-0.000737878,0.014047645,0.799499314,0.214140762,0.265177984,0.005182805,0.022000000,0.014500000,-0.504750000,-0.090000000,-0.060000000,9.840000000,1.000000000,-0.479166667,0.458333333
1780364213.977970362,17.424590588,-528.906259376,166.728176640,-0.149215924,-0.003094924,0.006852496,0.387567479,0.921810672,-0.000394304,0.015032958,0.796003528,0.210654133,0.258893639,0.011424003,0.012750000,0.004000000,0.428000000,-0.115000000,-0.065000000,9.850000000,0.406250000,-2.156250000,118.031250000
1780364214.078043461,17.524663687,-528.886055668,166.752919342,-0.147753915,-0.003107592,0.007364434,0.385882795,0.922513185,-0.000049979,0.015986588,0.792355410,0.264311081,0.322543142,0.022020939,-0.001250000,0.022000000,0.450250000,-0.140000000,-0.820000000,9.800000000,-1.812500000,1.312500000,121.843750000
1780364214.177871704,17.624491930,-528.865755827,166.777607707,-0.145707647,-0.003110124,0.007830770,0.384196297,0.923212983,0.000274530,0.016849531,0.788706160,0.220754915,0.267576572,0.024607558,0.012000000,0.026250000,-0.524750000,-0.160000000,-0.045000000,9.795000000,-0.843750000,1.687500000,-121.968750000
1780364214.278058767,17.724678993,-528.845357827,166.802240669,-0.143120974,-0.003103243,0.008244238,0.382508105,0.923910143,0.000572829,0.017608812,0.785055802,0.217705401,0.262013238,0.029698117,0.001000000,0.019750000,0.449500000,-0.160000000,-0.795000000,9.770000000,-1.583333333,1.562500000,82.291666667
1780364214.378051996,17.824672222,-528.824005895,166.827841749,-0.139908479,-0.003086707,0.008611999,0.380748249,0.924633482,0.000850004,0.018277419,0.781252955,0.238131964,0.284806131,0.037947386,0.008750000,0.002500000,-0.537250000,-0.165000000,-0.060000000,9.820000000,0.354166667,-1.791666667,-1.291666667
1780364214.477875710,17.924495935,-528.802546212,166.853381216,-0.136234455,-0.003058052,0.008910890,0.378986795,0.925354123,0.001094851,0.018810490,0.777448989,0.255969431,0.303866184,0.045734983,0.007250000,-0.010750000,-0.542750000,-0.165000000,0.690000000,9.895000000,-0.666666667,0.479166667,-84.250000000
1780364214.578240633,18.024860859,-528.793067744,166.864596836,-0.134490931,-0.003039626,0.009020162,0.378210748,0.925670582,0.001195877,0.018999779,0.775773798,0.092529896,0.109279705,0.017251343,0.010250000,0.001750000,-0.533000000,-0.155000000,0.705000000,9.875000000,1.125000000,1.625000000,-124.125000000
1780364214.677881956,18.124502182,-528.779245421,166.880890369,-0.131835532,-0.003010759,0.009152097,0.377081985,0.926129770,0.001325720,0.019223850,0.773337891,0.218107536,0.256823326,0.042579565,0.018250000,0.020250000,-0.547000000,-0.155000000,0.705000000,9.870000000,0.531250000,3.937500000,-126.343750000
1780364214.777965784,18.224586010,-528.766245291,166.896139995,-0.129235081,-0.002978371,0.009247337,0.376022890,0.926559443,0.001435416,0.019377499,0.771053078,0.227044385,0.265824710,0.045924263,0.005750000,0.020250000,-0.541750000,-0.205000000,-0.035000000,9.785000000,0.000000000,1.500000000,-125.437500000
1780364214.878113985,18.324734211,-528.748852740,166.916437547,-0.125633702,-0.002931539,0.009328891,0.374610510,0.927130705,0.001553858,0.019495807,0.768007104,0.084554286,0.098394789,0.017714579,0.030250000,0.002000000,0.476000000,-0.170000000,-0.055000000,9.770000000,1.854166667,-0.645833333,0.250000000
1780364214.978049994,18.424670219,-528.731391067,166.936691816,-0.121920880,-0.002878763,0.009358683,0.373197314,0.927700325,0.001644326,0.019514038,0.764960501,0.216613192,0.250537728,0.046368457,-0.005750000,0.007500000,-0.550250000,-0.175000000,-0.050000000,9.795000000,-0.968750000,2.250000000,-126.875000000
1780364215.078018427,18.524638653,-528.709469263,166.961949034,-0.117194014,-0.002805602,0.009322799,0.371430066,0.928409888,0.001716362,0.019396143,0.761152170,0.223595231,0.256953987,0.048320440,0.001500000,-0.014750000,-0.565000000,-0.150000000,-0.015000000,9.770000000,-1.031250000,-1.656250000,-128.906250000
1780364215.177967310,18.624587536,-528.691855214,166.982103082,-0.113401029,-0.002738981,0.009237498,0.370015086,0.928975782,0.001747455,0.019190930,0.758104263,0.218743484,0.249864586,0.046953038,0.001000000,-0.004500000,-0.560000000,-0.215000000,-0.030000000,9.770000000,-1.031250000,-0.843750000,-129.500000000
1780364215.277976274,18.724596500,-528.674175122,167.002211049,-0.109648471,-0.002666465,0.009103007,0.368599317,0.929539977,0.001753867,0.018890056,0.755055830,0.221243876,0.251201487,0.046590721,0.022500000,-0.015000000,-0.560000000,-0.190000000,-0.035000000,9.755000000,0.875000000,-0.187500000,-131.906250000
1780364215.378028631,18.824648857,-528.660871025,167.017259621,-0.106888276,-0.002607345,0.008971440,0.367536603,0.929962128,0.001745503,0.018603861,0.752768418,0.041368443,0.046576252,0.008479255,0.007500000,0.006250000,0.496000000,-0.170000000,-0.790000000,9.670000000,1.031250000,0.406250000,133.343750000
1780364215.478248596,18.924868822,-528.643970226,167.036285297,-0.103491370,-0.002532107,0.008766753,0.366190678,0.930495094,0.001708664,0.018170310,0.749872369,0.242670263,0.272407232,0.048007363,-0.004250000,-0.005750000,0.503000000,-0.170000000,0.010000000,9.730000000,-1.333333333,-0.270833333,1.229166667
1780364215.577976942,19.024597168,-528.625221440,167.057258712,-0.099907598,-0.002442448,0.008496252,0.364701446,0.931082544,0.001649205,0.017603863,0.746669418,0.225783402,0.251858697,0.042144415,0.019250000,-0.010500000,0.505000000,-0.165000000,-0.765000000,9.680000000,3.156250000,-0.875000000,135.687500000
1780364215.677933931,19.124554157,-528.607303440,167.077182984,-0.096703104,-0.002355213,0.008197124,0.363282606,0.931639956,0.001567550,0.016985570,0.743619291,0.218023363,0.241756844,0.037897338,-0.003500000,-0.013750000,0.505750000,-0.200000000,-0.785000000,9.625000000,-2.000000000,-2.531250000,135.218750000
