sim_time_sec,elapsed_time_sec,global_x,global_y,global_z,global_qx,global_qy,global_qz,global_qw,roll,pitch,yaw,global_vx,global_vy,global_vz,imu_angular_velocity_x,imu_angular_velocity_y,imu_angular_velocity_z,imu_linear_acceleration_x,imu_linear_acceleration_y,imu_linear_acceleration_z,imu_angular_acceleration_x,imu_angular_acceleration_y,imu_angular_acceleration_z
1780381995.565776587,0.223740101,-523.618711601,215.522114970,-0.075707452,-0.003929898,-0.001239658,0.457593124,0.889152153,-0.008123170,0.001392100,0.950575890,-0.000971627,-0.000351723,-0.039924079,-0.008750000,-0.000500000,-9.494500000,0.040000000,-0.095000000,9.770000000,-0.166666667,-0.833333333,-1581.458333491
1780381995.665721893,0.323685408,-523.618338612,215.522726927,-0.083647038,-0.004124953,-0.001572547,0.457594353,0.889150111,-0.008774699,0.000978651,0.950581305,0.009413404,0.014577137,-0.089209430,-0.004750000,-0.009750000,-9.485250000,0.240000000,-0.155000000,9.790000000,-0.145833333,0.166666667,-1580.354166824
1780381995.765676498,0.423640013,-523.616887715,215.525014282,-0.091446867,-0.004117502,-0.001888608,0.457596144,0.889148609,-0.009050705,0.000409800,0.950588304,0.014520760,0.023069431,-0.060758333,0.006000000,-0.016750000,9.483000000,0.265000000,-0.165000000,9.780000000,-0.062500000,-0.625000000,2370.281250056
1780381995.865703583,0.523667097,-523.616289573,215.525964573,-0.093703326,-0.004077118,-0.001960209,0.457596766,0.889148320,-0.009044419,0.000245519,0.950590419,0.005506426,0.008739956,-0.019694635,0.018000000,-0.002000000,9.490000000,0.305000000,-0.080000000,9.760000000,1.562500000,0.500000000,0.291666667
1780381995.965808392,0.623771906,-523.611208464,215.533918755,-0.107002518,-0.003749810,-0.002136453,0.457602161,0.889146578,-0.008623660,-0.000367397,0.950604301,0.045025570,0.069245130,-0.096231376,0.025000000,-0.001000000,9.504000000,0.310000000,-0.075000000,9.795000000,1.895833333,-0.083333333,2.375000000
1780381996.065681458,0.723644972,-523.605903385,215.541889098,-0.116578492,-0.003714742,-0.002012150,0.457608744,0.889143627,-0.008447534,-0.000178384,0.950617879,0.058139401,0.086212567,-0.095166015,-0.003250000,-0.000750000,-9.479500000,0.290000000,-0.025000000,9.750000000,1.343750000,-1.000000000,-2371.375000056
1780381996.165641308,0.823604822,-523.602871801,215.546349444,-0.121184193,-0.003789855,-0.001883038,0.457612775,0.889141518,-0.008462940,0.000119998,0.950625716,0.068117908,0.099945455,-0.100520244,-0.002000000,0.003250000,9.506000000,0.250000000,-0.085000000,9.780000000,0.312500000,-0.093750000,2375.937499516
1780381996.265787840,0.923751354,-523.597465671,215.554252829,-0.128457434,-0.003969528,-0.001584978,0.457620036,0.889137579,-0.008509653,0.000814544,0.950639275,0.067094868,0.098051078,-0.085516858,0.006000000,0.025500000,9.497500000,0.235000000,-0.130000000,9.820000000,0.593750000,-1.593750000,2372.406250056
1780381996.365725279,1.023688793,-523.590682047,215.564207549,-0.136377232,-0.004129729,-0.001126599,0.457628708,0.889133084,-0.008374997,0.001776374,0.950654837,0.628198448,0.924922200,-0.694035512,0.015750000,0.008000000,-9.494500000,0.225000000,-0.145000000,9.805000000,2.104166667,0.333333333,-1581.791666824
1780381996.465689182,1.123652697,-523.585342100,215.572107344,-0.141866379,-0.004158252,-0.000734901,0.457634905,0.889130172,-0.008067201,0.002499080,0.950665883,0.090711514,0.134450857,-0.089875586,-0.005250000,0.023250000,9.493750000,0.170000000,-0.145000000,9.875000000,-0.843750000,4.375000000,2372.312500056
1780381996.565702438,1.223665953,-523.577582846,215.583639305,-0.148829312,-0.004079602,-0.000179549,0.457642855,0.889126730,-0.007419017,0.003414725,0.950680582,0.103247919,0.153503723,-0.087102854,0.013250000,0.020500000,-9.488250000,0.160000000,-0.065000000,9.955000000,-0.093750000,0.062500000,-2373.156250056
1780381996.665705442,1.323668957,-523.569959892,215.594945575,-0.154638458,-0.003948982,0.000299244,0.457649684,0.889123772,-0.006748479,0.004146643,0.950694110,0.065279625,0.096566792,-0.046453114,-0.009500000,0.014500000,-9.477000000,0.140000000,-0.015000000,9.865000000,-2.843750000,-2.250000000,-2372.281250056
1780381996.765687466,1.423650980,-523.562196693,215.606377756,-0.159666475,-0.003833532,0.000702058,0.457655987,0.889120807,-0.006174453,0.004757324,0.950707337,0.118214969,0.173594282,-0.072307305,-0.000500000,0.014500000,-9.494750000,0.105000000,-0.015000000,9.885000000,-0.781250000,1.656250000,-2373.093750056
1780381996.865678549,1.523642063,-523.552383628,215.620707349,-0.164994858,-0.003744370,0.001120433,0.457663324,0.889116981,-0.005632917,0.005419741,0.950723308,0.125152762,0.182265282,-0.063263382,0.009250000,0.013500000,-9.489750000,0.110000000,-0.015000000,9.875000000,-0.406250000,0.718750000,-2371.593749517
1780381996.965684414,1.623647928,-523.544577108,215.632051137,-0.168588992,-0.003699768,0.001425924,0.457668681,0.889113973,-0.005273946,0.005922189,0.950735234,0.050132587,0.072807620,-0.022028795,-0.000750000,-0.000500000,9.495750000,0.110000000,-0.075000000,9.895000000,-0.020833333,-0.437500000,1.104166667
1780381997.065767288,1.723730803,-523.531381517,215.651225099,-0.173661405,-0.003603947,0.001984942,0.457676510,0.889109264,-0.004591806,0.006828598,0.950753406,0.135720800,0.197446630,-0.047680190,0.020250000,0.008250000,-9.483500000,0.105000000,-0.085000000,9.850000000,1.281250000,-0.718750000,-2373.499999516
1780381997.165764093,1.823727608,-523.519787122,215.668126106,-0.177257234,-0.003461932,0.002569559,0.457681870,0.889105572,-0.003804088,0.007738222,0.950767277,0.158417415,0.231185298,-0.045351226,0.009250000,0.016250000,-9.486500000,0.095000000,-0.025000000,9.865000000,1.781250000,1.781250000,-2371.406250056
1780381997.265741587,1.923705101,-523.510136443,215.682216357,-0.179696946,-0.003318736,0.003114295,0.457685233,0.889102646,-0.003050777,0.008575834,0.950777572,0.152219326,0.222253538,-0.035846457,0.007000000,0.004000000,9.506000000,0.085000000,-0.060000000,9.910000000,0.687500000,-1.500000000,1.166666667
1780381997.365661621,2.023625135,-523.497595561,215.700495150,-0.182148264,-0.003150574,0.003850973,0.457688362,0.889098761,-0.002077351,0.009731907,0.950789666,0.164558629,0.239508999,-0.028267790,0.024000000,0.010500000,9.499000000,0.050000000,-0.040000000,9.940000000,1.875000000,-1.375000000,2373.562500056
1780381997.465768814,2.123732328,-523.485843912,215.717543175,-0.183737128,-0.003047539,0.004518986,0.457690377,0.889094938,-0.001282585,0.010825486,0.950799915,0.102450995,0.148312123,-0.011459007,0.018000000,0.012750000,9.495500000,0.025000000,-0.005000000,9.895000000,-0.968750000,-0.625000000,2373.437500056
1780381997.565641165,2.223604679,-523.470889238,215.739118329,-0.184837757,-0.002985457,0.005292565,0.457692039,0.889090025,-0.000463985,0.012144273,0.950811492,0.172395571,0.248255212,-0.008361458,0.006750000,0.020500000,9.500000000,0.020000000,-0.025000000,9.915000000,-1.604166667,0.020833333,0.354166667
1780381997.665697813,2.323661327,-523.456764621,215.759426939,-0.185021906,-0.002937506,0.005941399,0.457692723,0.889085734,0.000215299,0.013254165,0.950820881,0.179742186,0.258326461,0.001333742,0.011750000,0.005000000,9.483000000,-0.045000000,-0.015000000,9.895000000,-1.000000000,0.104166667,0.520833333
1780381997.765781879,2.423745394,-523.445868748,215.775087168,-0.184655947,-0.002867683,0.006399241,0.457692573,0.889082862,0.000758628,0.014004403,0.950827129,0.189322456,0.272142297,0.008762575,-0.003000000,0.008500000,9.487750000,-0.070000000,-0.060000000,9.950000000,-1.062500000,0.031250000,2370.750000056
1780381997.865750551,2.523714066,-523.430968311,215.796519821,-0.183513340,-0.002705525,0.006979864,0.457691351,0.889079630,0.001578568,0.014888450,0.950834354,0.082213158,0.118281159,0.007933798,0.014750000,0.000500000,9.501250000,-0.040000000,-0.005000000,9.905000000,-0.031250000,-1.531250000,2373.781250056
1780381997.965690851,2.623654366,-523.415659007,215.818541598,-0.181646000,-0.002485843,0.007526341,0.457689057,0.889076994,0.002469542,0.015659119,0.950840272,0.191143004,0.274817250,0.026370465,0.009500000,-0.000250000,9.475500000,-0.065000000,-0.005000000,9.935000000,-0.531250000,-1.062500000,2372.593750056
1780381998.065681696,2.723645210,-523.399946595,215.841094305,-0.179083438,-0.002266433,0.008030411,0.457686029,0.889074730,0.003321208,0.016354630,0.950844783,0.199894756,0.286536378,0.035480786,0.003750000,0.009000000,9.507750000,-0.095000000,0.095000000,9.910000000,-1.656250000,0.343750000,2373.875000056
1780381998.165748835,2.823712349,-523.383839569,215.864124414,-0.175864164,-0.002098578,0.008487422,0.457682610,0.889072656,0.004038109,0.017013655,0.950847796,0.202172627,0.288609626,0.042984459,0.023750000,0.012000000,9.486250000,-0.105000000,0.070000000,9.880000000,2.031250000,2.187500000,2370.218749517
1780381998.265645742,2.923609257,-523.367361697,215.887597318,-0.172038673,-0.001991902,0.008905265,0.457678903,0.889070723,0.004610355,0.017659042,0.950849330,0.212617208,0.302533215,0.051717658,0.008500000,0.003750000,-9.492500000,-0.080000000,0.050000000,9.865000000,0.750000000,-0.770833333,-1581.500000157
1780381998.365708590,3.023672104,-523.353936633,215.906683788,-0.168581124,-0.001929995,0.009221861,0.457675628,0.889069318,0.005010291,0.018165369,0.950849591,0.127624999,0.181367255,0.033941438,0.000500000,0.000250000,9.498750000,-0.085000000,0.045000000,9.905000000,-1.000000000,-2.031250000,2372.781249517
1780381998.465754509,3.123718023,-523.333435273,215.935817804,-0.162802237,-0.001825597,0.009677544,0.457669984,0.889067601,0.005613114,0.018880144,0.950848608,0.180534341,0.256560861,0.052787558,0.018500000,-0.005000000,-9.493500000,-0.125000000,0.040000000,9.865000000,1.145833333,-1.104166667,-1582.729166824
1780381998.565646410,3.223609924,-523.316037081,215.960543968,-0.157497474,-0.001706974,0.010027511,0.457664688,0.889066684,0.006144442,0.019393910,0.950846623,0.225002970,0.319721737,0.070197999,0.018750000,0.020750000,9.490500000,-0.160000000,0.035000000,9.875000000,4.312500000,2.656250000,2373.875000056
1780381998.665761471,3.323724985,-523.298354452,215.985651727,-0.151791219,-0.001574994,0.010319764,0.457659278,0.889066368,0.006646674,0.019792824,0.950843489,0.223243338,0.316761865,0.073387958,-0.000500000,0.003000000,9.468250000,-0.155000000,0.085000000,9.905000000,0.062500000,-2.906250000,2372.343750056
1780381998.765700102,3.423663616,-523.279477112,216.012392958,-0.145411037,-0.001455228,0.010531291,0.457654052,0.889066782,0.007053264,0.020059370,0.950838780,0.228231137,0.322948318,0.078331916,-0.007000000,-0.010000000,9.491250000,-0.135000000,0.085000000,9.865000000,-0.625000000,-3.187500000,2372.375000056
1780381998.865797043,3.523760557,-523.265802110,216.031714041,-0.140641579,-0.001392631,0.010613468,0.457650822,0.889067568,0.007239772,0.020148220,0.950834509,0.227910414,0.321777537,0.080070164,-0.002750000,-0.007250000,9.489750000,-0.160000000,0.095000000,9.905000000,-1.625000000,0.531250000,2372.937500056
1780381998.965650797,3.623614311,-523.245480407,216.060365895,-0.133392965,-0.001326903,0.010638725,0.457646799,0.889069437,0.007379703,0.020132996,0.950826997,0.232521072,0.327613442,0.083575937,-0.002500000,0.010250000,9.499250000,-0.195000000,0.075000000,9.840000000,0.875000000,3.218750000,2373.750000056
1780381999.065644979,3.723608494,-523.224880984,216.089374557,-0.125942541,-0.001263448,0.010578896,0.457643304,0.889072042,0.007437680,0.019968545,0.950818369,0.241486195,0.340017949,0.087518548,0.004500000,-0.010000000,-9.492000000,-0.185000000,0.050000000,9.830000000,0.187500000,-1.104166667,-1582.833333251
1780381999.165696383,3.823659897,-523.201182272,216.122745312,-0.117382944,-0.001169066,0.010443538,0.457639531,0.889075714,0.007481489,0.019641477,0.950807513,0.236020595,0.332350336,0.084846939,0.006000000,-0.001750000,9.483000000,-0.150000000,0.045000000,9.785000000,-2.062500000,-1.437500000,2370.375000056
1780381999.265798330,3.923761845,-523.185863513,216.144309482,-0.111925277,-0.001104800,0.010324665,0.457637229,0.889078370,0.007486870,0.019371279,0.950800028,0.248541421,0.349809728,0.088068267,-0.001000000,-0.006000000,9.496500000,-0.190000000,0.090000000,9.780000000,-0.718750000,0.093750000,2372.375000056
1780381999.365918398,4.023881912,-523.169458671,216.167380836,-0.106192884,-0.001051053,0.010165780,0.457635008,0.889081409,0.007436907,0.019039560,0.950791579,0.248578198,0.349437049,0.086135719,-0.004000000,-0.009250000,9.469000000,-0.140000000,0.060000000,9.765000000,0.656250000,0.406250000,2369.218750056
1780381999.465760708,4.123724222,-523.147052935,216.198833307,-0.098611197,-0.001024343,0.009886067,0.457632594,0.889085837,0.007228217,0.018517729,0.950779359,0.247643121,0.347341319,0.082405961,-0.029250000,-0.012750000,9.503000000,-0.195000000,0.105000000,9.770000000,-0.843750000,-1.937500000,2376.656250056
1780381999.565669537,4.223633051,-523.127381919,216.226393627,-0.092240470,-0.001043229,0.009578201,0.457631065,0.889089972,0.006912689,0.017987562,0.950768102,0.244655083,0.342608672,0.077866924,0.006000000,-0.002250000,9.487750000,-0.160000000,0.095000000,9.735000000,-0.625000000,1.593750000,2371.468750056
1780381999.665751219,4.323714733,-523.101577616,216.262508472,-0.084362797,-0.001089118,0.009097098,0.457629585,0.889095731,0.006390529,0.017174051,0.950752903,0.249224262,0.348735849,0.073763857,0.007000000,-0.012000000,9.491500000,-0.165000000,0.045000000,9.770000000,1.843750000,0.062500000,2372.937500056
1780381999.765699387,4.423662901,-523.076550416,216.297532431,-0.077328339,-0.001115996,0.008562388,0.457628341,0.889101649,0.005853122,0.016247804,0.950737948,0.252293881,0.353079689,0.068279045,-0.009750000,-0.010000000,-9.486000000,-0.140000000,0.080000000,9.735000000,-1.593750000,-1.500000000,-2371.500000056
1780381999.865739107,4.523702621,-523.056388540,216.325746791,-0.072158431,-0.001124081,0.008086939,0.457627386,0.889106581,0.005403422,0.015409732,0.950725817,0.248029288,0.347029032,0.061413778,-0.009250000,-0.018250000,-9.479000000,-0.135000000,0.095000000,9.725000000,-1.750000000,-0.645833333,0.229166667
1780381999.965648413,4.623611927,-523.027956602,216.365500183,-0.065710114,-0.001151971,0.007348078,0.457626200,0.889113570,0.004677362,0.014121365,0.950708704,0.252990537,0.353495697,0.053587488,-0.002000000,-0.006000000,9.503500000,-0.100000000,0.040000000,9.735000000,-1.093750000,1.968750000,2371.906250056
1780382000.065705061,4.723668575,-523.004431562,216.398346365,-0.061180033,-0.001213911,0.006685247,0.457625317,0.889119172,0.003960398,0.012999361,0.950694722,0.257348823,0.359135473,0.046310018,-0.009250000,-0.027750000,-9.476000000,-0.110000000,0.070000000,9.700000000,-0.395833333,-0.937500000,-1579.291666584
1780382000.165738106,4.823701620,-522.983866488,216.427035915,-0.057852259,-0.001292371,0.006085136,0.457624436,0.889123825,0.003271499,0.012004008,0.950682789,0.183484517,0.255929281,0.027668024,-0.007500000,-0.005000000,9.479250000,-0.085000000,0.060000000,9.725000000,-0.406250000,1.125000000,2370.906250056
1780382000.265636444,4.923599958,-522.966320003,216.451511895,-0.055497050,-0.001365098,0.005571146,0.457623455,0.889127591,0.002671651,0.011156552,0.950672866,0.079791266,0.111306572,0.009860200,0.005250000,-0.010750000,9.505750000,-0.095000000,0.035000000,9.755000000,0.656250000,-0.218750000,2372.906250056
1780382000.365791559,5.023755074,-522.945610999,216.480409456,-0.053306942,-0.001447044,0.004972479,0.457621929,0.889131796,0.001977909,0.010166952,0.950661455,0.258111028,0.360219411,0.024277824,0.007250000,-0.015500000,9.486500000,-0.100000000,0.025000000,9.705000000,1.937500000,-0.781250000,2372.625000056
1780382000.465643406,5.123606920,-522.919631607,216.516676222,-0.051478586,-0.001544480,0.004237031,0.457619485,0.889136699,0.001131435,0.008948288,0.950647629,0.264862425,0.369781763,0.014450827,-0.015500000,-0.006750000,9.502000000,-0.045000000,-0.000000000,9.735000000,-0.291666667,1.208333333,2.020833333
1780382000.565636396,5.223599911,-522.903993832,216.538506025,-0.050872833,-0.001607518,0.003799826,0.457617806,0.889139427,0.000619142,0.008228501,0.950639631,0.263292472,0.367517727,0.008121818,-0.014000000,-0.017500000,-9.484000000,-0.065000000,0.005000000,9.670000000,0.229166667,-0.291666667,-1580.250000157
1780382000.665820837,5.323784351,-522.889365039,216.558923814,-0.050639597,-0.001673832,0.003392831,0.457616127,0.889141815,0.000128684,0.007565433,0.950632400,0.104571916,0.145944961,0.000769576,-0.005000000,-0.021000000,-9.508000000,-0.040000000,0.000000000,9.675000000,0.625000000,-2.250000000,-2375.406250056
1780382000.765705347,5.423668861,-522.867363372,216.589623244,-0.050885115,-0.001787878,0.002785707,0.457613446,0.889145082,-0.000629825,0.006590157,0.950622080,0.259799619,0.362470816,-0.006079377,-0.015000000,-0.012000000,-9.478000000,-0.040000000,0.005000000,9.720000000,-0.229166667,1.229166667,0.395833333
1780382000.865694284,5.523657799,-522.846354082,216.618939524,-0.051772059,-0.001904918,0.002219472,0.457610680,0.889147857,-0.001356221,0.005690330,0.950612838,0.265561183,0.370598743,-0.014180072,-0.012750000,-0.000250000,-9.474750000,-0.080000000,-0.025000000,9.725000000,-0.031250000,5.250000000,-2369.937500056
1780382000.965718746,5.623682261,-522.825303212,216.648330546,-0.053281399,-0.002017809,0.001677793,0.457607677,0.889150340,-0.002052755,0.004830368,0.950604125,0.263246497,0.367642985,-0.021734648,-0.006000000,-0.007000000,-9.477250000,-0.030000000,0.005000000,9.715000000,1.875000000,1.281250000,-2371.437500056
1780382001.065703392,5.723666906,-522.809494125,216.670420816,-0.054811503,-0.002095136,0.001294677,0.457605275,0.889152038,-0.002540912,0.004219834,0.950597898,0.121852034,0.170311595,-0.012652115,-0.012250000,-0.008250000,-9.494250000,-0.030000000,-0.100000000,9.685000000,1.218750000,-1.250000000,-2373.000000056
1780382001.165806293,5.823769808,-522.784167853,216.705840973,-0.057944551,-0.002208602,0.000730711,0.457601265,0.889154469,-0.003258853,0.003320754,0.950588491,0.248304072,0.347413071,-0.033887646,-0.017500000,-0.004750000,-9.489250000,0.015000000,-0.010000000,9.720000000,-1.937500000,1.437500000,-2373.062500056
1780382001.265818834,5.923782349,-522.763034331,216.735419906,-0.061168736,-0.002303630,0.000309315,0.457597890,0.889156211,-0.003813512,0.002658335,0.950581238,0.262831488,0.367950853,-0.042578221,-0.014250000,-0.005250000,9.488500000,-0.040000000,-0.045000000,9.720000000,-0.354166667,-0.062500000,1580.916666584
1780382001.365672588,6.023636103,-522.751400080,216.751709357,-0.063165872,-0.002359530,0.000096792,0.457596068,0.889157051,-0.004107425,0.002331552,0.950577509,0.270942938,0.379401256,-0.047478813,-0.000500000,-0.013750000,9.472750000,0.030000000,-0.020000000,9.765000000,1.093750000,-2.593749999,2369.687499517
1780382001.465779066,6.123742580,-522.733406735,216.776911606,-0.066544500,-0.002451901,-0.000203480,0.457593333,0.889158191,-0.004546502,0.001882097,0.950572112,0.176287502,0.246976540,-0.034465591,-0.021500000,-0.000750000,9.488750000,0.025000000,-0.055000000,9.740000000,-1.781250000,0.406250000,2372.656249517
1780382001.565637350,6.223600864,-522.714340257,216.803631672,-0.070479412,-0.002554267,-0.000481169,0.457590583,0.889159211,-0.004982682,0.001481946,0.950566874,0.265187724,0.371733725,-0.056459072,0.009500000,-0.003000000,9.476750000,-0.025000000,-0.065000000,9.715000000,1.062500000,-1.000000000,2371.937500056
1780382001.665641308,6.323604822,-522.693144511,216.833364537,-0.075237363,-0.002664670,-0.000735996,0.457587719,0.889160186,-0.005412233,0.001129804,0.950561524,0.263043727,0.369142223,-0.060787740,0.011250000,-0.008000000,-9.478500000,0.015000000,-0.040000000,9.765000000,0.833333333,0.312500000,-1581.145833251
1780382001.765753746,6.423717260,-522.671942629,216.863143968,-0.080348085,-0.002763322,-0.000930228,0.457585086,0.889161059,-0.005765427,0.000874665,0.950556578,0.275367272,0.386952810,-0.067927864,0.008500000,-0.003750000,9.499500000,0.050000000,-0.030000000,9.760000000,1.500000000,-0.156250000,2372.125000056
1780382001.865748644,6.523712158,-522.654978233,216.887000016,-0.084652293,-0.002832313,-0.001041504,0.457583169,0.889161705,-0.005989956,0.000739907,0.950552883,0.041887186,0.058920048,-0.010822099,0.000500000,0.010500000,9.491750000,0.015000000,-0.100000000,9.760000000,0.000000000,1.968750000,2373.281250056
1780382001.965699196,6.623662710,-522.634829084,216.915363794,-0.089967783,-0.002906171,-0.001124529,0.457581145,0.889162407,-0.006197284,0.000659840,0.950548812,0.266473091,0.375230429,-0.071237357,-0.007250000,-0.003750000,-9.479000000,0.030000000,-0.045000000,9.715000000,-0.291666667,0.520833333,1.541666667
1780382002.065667629,6.723631144,-522.613612929,216.945256869,-0.095748711,-0.002980412,-0.001156950,0.457579346,0.889163045,-0.006358982,0.000670116,0.950544944,0.265593483,0.374319634,-0.073087997,-0.002250000,0.018500000,-9.492750000,-0.000000000,-0.045000000,9.780000000,-2.718750000,0.375000000,-2372.093750056
1780382002.165650606,6.823614120,-522.597696485,216.967699335,-0.100172918,-0.003035907,-0.001144839,0.457578227,0.889163449,-0.006446588,0.000742431,0.950542322,0.063381802,0.089409241,-0.017715874,0.013500000,0.014250000,-9.489000000,-0.025000000,-0.115000000,9.785000000,0.031250000,0.562500000,-2372.187500056
1780382002.265742302,6.923705816,-522.575408795,216.999149836,-0.106438824,-0.003111706,-0.001073742,0.457576982,0.889163916,-0.006516323,0.000938225,0.950539016,0.184605808,0.260633908,-0.052061494,0.001500000,0.017750000,-9.488000000,-0.000000000,-0.015000000,9.780000000,2.500000000,0.906250000,-2370.406250056
1780382002.365725994,7.023689508,-522.555242899,217.027636790,-0.112125351,-0.003173302,-0.000951960,0.457576132,0.889164275,-0.006514412,0.001211156,0.950536287,0.262956149,0.371620579,-0.074072724,0.004000000,0.014750000,9.500500000,-0.005000000,-0.075000000,9.800000000,1.104166667,1.770833334,1582.500000157
1780382002.465637445,7.123600960,-522.534017047,217.057655510,-0.118067826,-0.003226075,-0.000762810,0.457575464,0.889164611,-0.006435163,0.001595820,0.950533602,0.270186999,0.382298368,-0.075267106,-0.002500000,-0.006500000,9.497500000,0.030000000,-0.080000000,9.830000000,-0.125000000,-1.791666667,1583.104166824
1780382002.565641165,7.223604679,-522.518098508,217.080190793,-0.122459020,-0.003257029,-0.000580745,0.457575079,0.889164834,-0.006323594,0.001947916,0.950531690,0.038073659,0.053930078,-0.010419719,0.009250000,0.018750000,-9.482250000,0.025000000,-0.080000000,9.805000000,1.625000000,0.468750000,-2372.562500056
1780382002.665760279,7.323723793,-522.495811675,217.111769213,-0.128458722,-0.003291033,-0.000272357,0.457574646,0.889165079,-0.006101848,0.002527449,0.950529144,0.187935301,0.266397339,-0.049836401,-0.001250000,-0.005000000,-9.486500000,0.020000000,-0.045000000,9.810000000,-0.406250000,-1.250000000,-2371.625000056
1780382002.765774727,7.423738241,-522.473518946,217.143378625,-0.134223840,-0.003319262,0.000091328,0.457574282,0.889165199,-0.005819229,0.003200034,0.950526787,0.270260892,0.383284597,-0.068615768,-0.006250000,0.007250000,-9.514250000,-0.005000000,-0.045000000,9.820000000,-0.031250000,0.250000000,-2376.906250056
1780382002.865694046,7.523657560,-522.451217206,217.175017869,-0.139688088,-0.003343955,0.000503414,0.457573896,0.889165167,-0.005486028,0.003955460,0.950524591,0.173041817,0.245532013,-0.041255968,0.006500000,0.009250000,9.499250000,-0.035000000,-0.090000000,9.865000000,0.166666667,0.125000000,1.083333333
1780382002.965683222,7.623646736,-522.433156391,217.200652916,-0.143847910,-0.003359388,0.000869340,0.457573492,0.889165034,-0.005178604,0.004620324,0.950522879,0.269025258,0.381916207,-0.060607609,0.014000000,0.006500000,9.480500000,-0.005000000,-0.065000000,9.825000000,-0.833333333,-0.020833333,-0.166666667
1780382003.065773249,7.723736763,-522.411900183,217.230838006,-0.148394652,-0.003368191,0.001334440,0.457572822,0.889164769,-0.004768636,0.005455486,0.950520887,0.061738293,0.087711270,-0.012648367,-0.013000000,0.019750000,9.498250000,-0.035000000,-0.035000000,9.890000000,-1.718750000,1.031250000,2374.093750056
1780382003.165654659,7.823618174,-522.390634944,217.261051872,-0.152522782,-0.003363978,0.001833797,0.457571846,0.889164398,-0.004304171,0.006339659,0.950518855,0.107964137,0.153428628,-0.019937687,-0.002750000,0.010750000,9.491250000,-0.055000000,-0.035000000,9.880000000,-1.895833333,-1.458333333,0.125000000
1780382003.265715599,7.923679113,-522.369358521,217.291293384,-0.156192229,-0.003347659,0.002362209,0.457570484,0.889163914,-0.003791590,0.007264426,0.950516748,0.271371070,0.385767864,-0.044498477,0.004500000,0.030000000,9.504250000,-0.065000000,-0.050000000,9.880000000,2.000000000,3.093750000,2375.531250056
1780382003.365678787,8.023642302,-522.355521287,217.310964223,-0.158314931,-0.003332467,0.002718033,0.457569365,0.889163530,-0.003438954,0.007883302,0.950515325,0.156569095,0.222589486,-0.023086259,0.023000000,0.012500000,9.506250000,-0.065000000,-0.055000000,9.860000000,1.000000000,-0.937500000,2374.687499516
1780382003.465796709,8.123760223,-522.339545858,217.333673622,-0.160494656,-0.003312442,0.003137604,0.457567836,0.889163010,-0.003019385,0.008611124,0.950513636,0.106130487,0.150853821,-0.013692353,0.011500000,0.001500000,-9.483250000,-0.080000000,-0.010000000,9.855000000,1.093750000,-0.625000000,-2372.250000056
1780382003.565697670,8.223661184,-522.318228339,217.363972625,-0.162933851,-0.003283321,0.003707500,0.457565369,0.889162194,-0.002446077,0.009597953,0.950511258,0.270270309,0.384121134,-0.028323340,0.012750000,-0.013750000,-9.510000000,-0.100000000,-0.045000000,9.870000000,1.187500000,-1.750000000,-2376.625000056
1780382003.665721416,8.323684931,-522.293687366,217.398843711,-0.165054034,-0.003245788,0.004371280,0.457561897,0.889161103,-0.001771898,0.010744048,0.950508301,0.270031104,0.383642226,-0.020102615,0.015750000,0.021750000,-9.502750000,-0.085000000,-0.045000000,9.900000000,-0.625000000,1.187500000,-2374.687500056
1780382003.765767336,8.423730850,-522.270187707,217.432226842,-0.166375851,-0.003202115,0.005008435,0.457557893,0.889159961,-0.001111165,0.011837183,0.950505169,0.264621309,0.375884259,-0.011837020,0.009250000,0.015500000,-9.491250000,-0.135000000,-0.025000000,9.855000000,-0.979166667,0.687500000,-0.958333333
1780382003.865673780,8.523637295,-522.249871048,217.461079617,-0.166952309,-0.003156275,0.005554926,0.457553900,0.889158934,-0.000529548,0.012767104,0.950502204,0.123839561,0.175848641,-0.002077980,0.004500000,0.012500000,-9.485000000,-0.145000000,0.020000000,9.860000000,0.833333333,0.395833333,-0.208333333
1780382003.965670824,8.623634338,-522.228462216,217.491472392,-0.166990974,-0.003100654,0.006119690,0.457549178,0.889157851,0.000086184,0.013720575,0.950498769,0.271311793,0.385109059,0.002272000,-0.014250000,0.010250000,-9.496750000,-0.140000000,-0.020000000,9.900000000,-2.375000000,-0.604166667,0.208333333
1780382004.065639019,8.723602533,-522.204882131,217.524927750,-0.166365819,-0.003034380,0.006719444,0.457543445,0.889156700,0.000752878,0.014726531,0.950494580,0.269136857,0.381727675,0.010184146,0.011500000,0.018000000,9.476250000,-0.150000000,0.010000000,9.915000000,2.062500000,1.000000000,2371.718750056
1780382004.165774345,8.823737860,-522.183415756,217.555361076,-0.165202508,-0.002972628,0.007237403,0.457537830,0.889155733,0.001336676,0.015591168,0.950490356,0.275690627,0.390723612,0.017614001,-0.000000000,0.016250000,9.487000000,-0.175000000,-0.020000000,9.905000000,-1.156250000,1.937500000,2372.468750056
1780382004.265685081,8.923648596,-522.162995760,217.584288931,-0.163588727,-0.002913359,0.007700266,0.457532211,0.889154933,0.001865635,0.016360100,0.950485936,0.081768908,0.115818481,0.007325170,0.011250000,0.016750000,9.497750000,-0.180000000,-0.005000000,9.895000000,0.968750000,1.625000000,2373.531250056
1780382004.365691423,9.023654938,-522.139318944,217.617803173,-0.161127585,-0.002842622,0.008196256,0.457525448,0.889154208,0.002445295,0.017177460,0.950480311,0.274131529,0.387899201,0.031234304,0.004000000,0.015500000,-9.489250000,-0.200000000,0.030000000,9.880000000,-0.812500000,0.937500000,-1581.145833251
1780382004.465694904,9.123658419,-522.114530661,217.652862389,-0.157914591,-0.002764266,0.008664497,0.457518165,0.889153763,0.003013105,0.017938506,0.950473790,0.272604928,0.385412555,0.038002348,0.015000000,0.005000000,9.493750000,-0.210000000,0.015000000,9.905000000,0.250000000,-2.218750000,2373.000000056
1780382004.565733194,9.223696709,-522.091866113,217.684890441,-0.154453406,-0.002689437,0.009042247,0.457511449,0.889153687,0.003491826,0.018541854,0.950467264,0.192616996,0.272097983,0.030940731,-0.015750000,-0.001500000,9.483750000,-0.180000000,0.030000000,9.875000000,-1.406250000,-0.343750000,2372.187500056
1780382004.665836811,9.323800325,-522.079982178,217.701673218,-0.152455180,-0.002649855,0.009219380,0.457507943,0.889153791,0.003724289,0.018820664,0.950463607,0.260698001,0.368096091,0.044552564,0.021250000,-0.004250000,-9.485500000,-0.225000000,0.050000000,9.850000000,0.645833333,-0.708333333,1.083333333
1780382004.765691757,9.423655272,-522.063762953,217.724564777,-0.149541482,-0.002596562,0.009436216,0.457503221,0.889154103,0.004017459,0.019157544,0.950458360,0.027362996,0.038613488,0.005077082,0.005500000,0.013000000,9.484250000,-0.210000000,0.065000000,9.840000000,-0.937500000,0.270833333,1582.041666824
1780382004.865762234,9.523725748,-522.039945351,217.758150047,-0.144911444,-0.002521396,0.009699627,0.457496508,0.889154939,0.004392122,0.019557248,0.950450122,0.276349424,0.389514728,0.055452112,0.006250000,-0.023500000,9.487500000,-0.205000000,0.040000000,9.840000000,0.479166667,-2.104166667,1580.895833491
1780382004.965651989,9.623615503,-522.020433670,217.785638490,-0.140848042,-0.002462665,0.009864817,0.457491252,0.889155990,0.004647675,0.019797310,0.950442870,0.273709711,0.385498666,0.058111962,0.005750000,0.002000000,-9.491750000,-0.180000000,0.070000000,9.815000000,-0.281250000,-2.187500000,-2373.687500056
1780382005.065680027,9.723643541,-522.009584148,217.800913025,-0.138498481,-0.002430895,0.009936568,0.457488454,0.889156719,0.004769799,0.019895857,0.950438670,0.022886625,0.032210135,0.005011321,0.013000000,0.015500000,-9.495750000,-0.230000000,0.040000000,9.830000000,0.875000000,1.583333333,-1581.499999918
1780382005.165646553,9.823610067,-521.983520378,217.837582101,-0.132638197,-0.002355676,0.010050016,0.457482092,0.889158919,0.005007289,0.020028821,0.950428038,0.256076061,0.360126809,0.058662731,-0.001000000,0.013000000,9.491750000,-0.225000000,0.050000000,9.820000000,-3.250000000,0.156250000,2374.375000056
1780382005.265818834,9.923782349,-521.960686691,217.869678077,-0.127313850,-0.002290711,0.010080711,0.457476989,0.889161367,0.005150819,0.020023991,0.950418146,0.273721712,0.384642665,0.064449410,0.002750000,-0.008250000,9.478250000,-0.185000000,0.090000000,9.825000000,-0.437500000,-0.312500000,2371.718750056
1780382005.365921974,10.023885489,-521.938916865,217.900253155,-0.122135343,-0.002230800,0.010049880,0.457472572,0.889164141,0.005229054,0.019914361,0.950408250,0.276956241,0.388870936,0.066193706,0.008000000,-0.012500000,9.481000000,-0.240000000,0.045000000,9.800000000,1.843750000,-2.531250000,2370.968750056
1780382005.465645075,10.123608589,-521.917124890,217.930833900,-0.116910454,-0.002174809,0.009960277,0.457468611,0.889167326,0.005246533,0.019703794,0.950397911,0.270928829,0.380088807,0.064994140,-0.003250000,-0.013000000,9.476750000,-0.200000000,0.080000000,9.800000000,0.812500000,-1.468750000,2371.250000056
1780382005.565767288,10.223730803,-521.900766812,217.953772163,-0.112996250,-0.002136329,0.009854912,0.457465944,0.889169965,0.005218467,0.019481211,0.950389895,0.102076715,0.143105115,0.024377242,0.006250000,0.000750000,9.485500000,-0.175000000,0.035000000,9.775000000,1.218750000,2.781250000,2371.093750056
1780382005.665896893,10.323860407,-521.880030863,217.982830165,-0.108085608,-0.002092048,0.009675877,0.457462916,0.889173595,0.005133283,0.019122303,0.950379439,0.276699148,0.387626499,0.065123191,-0.006000000,-0.008250000,9.513000000,-0.205000000,0.020000000,9.775000000,-0.343750000,1.343750000,2374.750000056
1780382005.765644312,10.423607826,-521.862556284,218.007301892,-0.104024405,-0.002058205,0.009487238,0.457460652,0.889176871,0.005020763,0.018755860,0.950370420,0.269250134,0.376977711,0.062107602,-0.002000000,-0.010500000,9.507750000,-0.210000000,0.020000000,9.780000000,-0.406250000,-0.593750000,2375.312500056
1780382005.865770340,10.523733854,-521.840698711,218.037893537,-0.099088592,-0.002019419,0.009205520,0.457458143,0.889181212,0.004831842,0.018219359,0.950358917,0.281632262,0.394064259,0.062690268,-0.005500000,0.001500000,-9.496500000,-0.225000000,0.055000000,9.775000000,-1.270833333,-0.750000000,-1.041666667
1780382005.965712070,10.623675585,-521.818827005,218.068486675,-0.094358577,-0.001984121,0.008875954,0.457455936,0.889185778,0.004592938,0.017600948,0.950347217,0.146164158,0.204396423,0.031011122,-0.014000000,-0.013000000,9.486500000,-0.175000000,0.050000000,9.760000000,-1.312500000,0.281250000,2372.499999517
1780382006.065837383,10.723800898,-521.794753537,218.102139539,-0.089453393,-0.001950006,0.008462052,0.457453791,0.889190992,0.004274758,0.016833631,0.950334190,0.194215927,0.271430974,0.038412158,0.007500000,-0.000500000,9.490750000,-0.220000000,0.020000000,9.755000000,1.968750000,0.000000000,2373.249999517
1780382006.165694714,10.823658228,-521.775046807,218.129672877,-0.085714690,-0.001926766,0.008086426,0.457452204,0.889195354,0.003972292,0.016144334,0.950323462,0.277831490,0.388091756,0.051333666,-0.001750000,-0.013250000,9.489500000,-0.130000000,0.040000000,9.730000000,1.062500000,-0.687500000,2375.031250056
1780382006.265732765,10.923696280,-521.747663172,218.167910717,-0.080995367,-0.001902408,0.007515474,0.457450163,0.889201466,0.003493067,0.015106629,0.950308559,0.278918649,0.389372252,0.045653781,0.001500000,-0.000500000,9.498750000,-0.165000000,0.010000000,9.725000000,1.375000000,3.375000000,2374.843750056
1780382006.365646124,11.023609638,-521.725747980,218.198497834,-0.077662416,-0.001889066,0.007023500,0.457448577,0.889206332,0.003066556,0.014219461,0.950296703,0.271276700,0.378555958,0.039314952,-0.003000000,-0.003250000,9.499500000,-0.170000000,0.035000000,9.730000000,1.406250000,0.906250000,2374.125000056
1780382006.465739012,11.123702526,-521.703828079,218.229081515,-0.074760117,-0.001880098,0.006506513,0.457446953,0.889211120,0.002609395,0.013291809,0.950284975,0.284874040,0.397415432,0.035529464,-0.006250000,0.001250000,9.499000000,-0.135000000,0.010000000,9.750000000,-0.312500000,1.937500000,2374.500000056
1780382006.565705299,11.223668814,-521.681905941,218.259661155,-0.072317678,-0.001874731,0.005970531,0.457445230,0.889215778,0.002128465,0.012333667,0.950273433,0.165793522,0.231244106,0.017124440,0.000000000,-0.004750000,-9.488250000,-0.135000000,0.020000000,9.710000000,-0.104166667,1.104166667,-1581.770833491
1780382006.665711403,11.323674917,-521.654503454,218.297878805,-0.069947302,-0.001873142,0.005282696,0.457442861,0.889221352,0.001501882,0.011108912,0.950259336,0.161312661,0.224971554,0.012120446,-0.000250000,-0.027250000,9.499000000,-0.100000000,0.055000000,9.730000000,1.062500000,-2.687499999,2371.249999517
1780382006.765713930,11.423677444,-521.632583651,218.328446053,-0.068618825,-0.001876716,0.004724982,0.457440759,0.889225564,0.000985201,0.010120295,0.950248386,0.276108875,0.385038764,0.014308201,-0.002750000,-0.011250000,-9.475250000,-0.070000000,0.030000000,9.725000000,-0.656250000,-0.406250000,-2372.718750056
1780382006.865641594,11.523605108,-521.605190079,218.366645381,-0.067686710,-0.001887744,0.004027971,0.457437835,0.889230476,0.000327826,0.008890758,0.950235165,0.276269290,0.385262752,0.006108095,-0.012500000,-0.013250000,9.491000000,-0.105000000,0.030000000,9.705000000,-0.208333333,0.145833333,1580.416666584
1780382006.965678215,11.623641729,-521.577807154,218.404832835,-0.067572196,-0.001905176,0.003342154,0.457434573,0.889234959,-0.000330674,0.007686982,0.950222533,0.274299441,0.382548605,-0.002127932,-0.003500000,-0.008250000,-9.484750000,-0.060000000,0.030000000,9.720000000,0.937500000,-0.156250000,-2371.937500056
1780382007.065725565,11.723689079,-521.555911990,218.435374238,-0.068066468,-0.001922367,0.002809690,0.457431718,0.889238232,-0.000848421,0.006755723,0.950212866,0.262508618,0.366194779,-0.008248256,0.012000000,-0.014500000,-9.504000000,-0.040000000,0.010000000,9.725000000,2.645833333,-0.541666667,-0.666666667
1780382007.165696621,11.823660135,-521.528560382,218.473539805,-0.069401856,-0.001946740,0.002173923,0.457427879,0.889241936,-0.001473445,0.005647303,0.950201354,0.276151845,0.385392030,-0.016649885,-0.009250000,0.001250000,9.506500000,-0.060000000,0.015000000,9.670000000,-0.062500000,0.156250000,2373.687500056
1780382007.265691519,11.923655033,-521.501231686,218.511692637,-0.071505905,-0.001974166,0.001580892,0.457423796,0.889245227,-0.002064784,0.004617678,0.950190475,0.273207032,0.381510845,-0.024022963,-0.000250000,-0.004750000,9.500500000,-0.025000000,-0.065000000,9.700000000,1.625000000,-0.437500000,-0.083333333
1780382007.365677118,12.023640633,-521.478295244,218.543730574,-0.073836204,-0.001999915,0.001122645,0.457420246,0.889247693,-0.002529820,0.003826232,0.950181833,0.276883097,0.386842455,-0.030414416,-0.011250000,-0.007750000,-9.479000000,-0.050000000,0.010000000,9.740000000,-1.531250000,0.437500000,-2369.687500056
1780382007.465704203,12.123667717,-521.457559947,218.572708762,-0.076359160,-0.002025297,0.000744165,0.457416992,0.889249706,-0.002921221,0.003176313,0.950174405,0.272100531,0.380362315,-0.034944370,-0.018750000,-0.020250000,-9.482000000,-0.010000000,-0.010000000,9.710000000,-1.250000000,-2.468750000,-2373.593750056
1780382007.565759182,12.223722696,-521.437932200,218.600154704,-0.079086584,-0.002050650,0.000420877,0.457413908,0.889251446,-0.003262073,0.002624526,0.950167688,0.276856200,0.387201791,-0.040075890,-0.015250000,-0.012000000,9.492250000,0.020000000,-0.050000000,9.715000000,-2.281250000,-2.750000000,2372.562500056
1780382007.665655613,12.323619127,-521.419410068,218.626069616,-0.081939342,-0.002075233,0.000149829,0.457411029,0.889252957,-0.003553763,0.002164942,0.950161619,0.286806229,0.401354768,-0.045578810,-0.005000000,-0.013500000,9.498250000,-0.020000000,-0.070000000,9.735000000,2.593750000,-1.218750000,2372.718750056
1780382007.765678167,12.423641682,-521.401991803,218.650454969,-0.084847493,-0.002098521,-0.000072805,0.457408372,0.889254279,-0.003798855,0.001790279,0.950156131,0.279399485,0.391222373,-0.047784392,-0.000500000,-0.011250000,9.489250000,0.000000000,-0.080000000,9.735000000,0.750000000,-0.468750000,2372.875000056
1780382007.865788221,12.523751736,-521.378065053,218.683977074,-0.089158028,-0.002130487,-0.000324707,0.457404842,0.889255962,-0.004086157,0.001371495,0.950148911,0.169759463,0.237936996,-0.031607116,-0.014500000,-0.005500000,-9.489500000,0.000000000,-0.040000000,9.785000000,-1.041666667,0.729166667,-1581.624999918
1780382007.965691566,12.623655081,-521.353079132,218.719013252,-0.093989401,-0.002164016,-0.000518127,0.457401363,0.889257579,-0.004322735,0.001058152,0.950141758,0.159969923,0.224392875,-0.031747068,-0.011000000,0.004000000,9.493500000,0.040000000,-0.035000000,9.735000000,-2.437500000,2.187500000,2372.906250056
1780382008.065696001,12.723659515,-521.327038118,218.755563370,-0.099305087,-0.002199218,-0.000641237,0.457397997,0.889259144,-0.004497968,0.000871384,0.950134668,0.176098309,0.247263412,-0.036605894,0.005250000,-0.001750000,9.491000000,-0.025000000,-0.045000000,9.760000000,-0.708333333,-0.229166667,0.375000000
1780382008.165697813,12.823661327,-521.302111254,218.790582471,-0.104580912,-0.002232834,-0.000682217,0.457395048,0.889260546,-0.004595246,0.000829237,0.950128194,0.269688451,0.379005174,-0.057650561,0.013250000,-0.024500000,-9.494250000,0.010000000,-0.015000000,9.815000000,0.343750000,-3.687500000,-2372.000000056
1780382008.265773058,12.923736572,-521.280458430,218.821028639,-0.109249473,-0.002261296,-0.000655989,0.457392697,0.889261703,-0.004621876,0.000901910,0.950122776,0.173442662,0.243947362,-0.037543908,-0.019500000,0.011750000,-9.496500000,0.015000000,-0.020000000,9.780000000,-1.812500000,2.312500000,-2373.812500056
1780382008.365650177,13.023613691,-521.256663729,218.854515100,-0.114404572,-0.002291123,-0.000560908,0.457390318,0.889262916,-0.004587948,0.001098286,0.950117000,0.264342263,0.372141871,-0.057207950,-0.001250000,-0.011000000,9.480250000,-0.015000000,-0.065000000,9.830000000,-1.479166667,-1.104166667,1580.749999918
1780382008.465646505,13.123610020,-521.231811026,218.889519585,-0.119740729,-0.002320502,-0.000388820,0.457388030,0.889264108,-0.004482780,0.001431213,0.950111151,0.270852581,0.381631818,-0.057744979,-0.000750000,0.013000000,-9.486000000,0.030000000,-0.045000000,9.795000000,-1.125000000,1.229166667,-0.666666667
1780382008.565653801,13.223617315,-521.204822101,218.927565194,-0.125386456,-0.002350533,-0.000120703,0.457385693,0.889265308,-0.004290932,0.001935528,0.950104954,0.273352542,0.385474310,-0.056314699,0.000250000,-0.001250000,9.479750000,-0.010000000,-0.055000000,9.790000000,-0.125000000,-0.593750000,2369.656250056
1780382008.665721893,13.323685408,-521.186482051,218.953435142,-0.129083838,-0.002370044,0.000107432,0.457384151,0.889266051,-0.004116947,0.002359115,0.950100827,0.280462458,0.395671002,-0.055810852,0.001250000,0.015000000,-9.513750000,-0.045000000,-0.030000000,9.810000000,0.854166667,0.625000000,-1.729166667
1780382008.765730858,13.423694372,-521.164916714,218.983870473,-0.133239567,-0.002391959,0.000420545,0.457382324,0.889266839,-0.003869505,0.002936037,0.950096032,0.030898589,0.043610066,-0.005792646,0.010750000,0.019250000,-9.489750000,0.010000000,-0.055000000,9.825000000,0.687500000,1.312500000,-2374.218750056
1780382008.865643978,13.523607492,-521.143361212,219.014306788,-0.137140918,-0.002412516,0.000778836,0.457380424,0.889267519,-0.003578327,0.003592069,0.950091285,0.270782599,0.382394487,-0.047693288,-0.007750000,0.031000000,9.486250000,-0.045000000,-0.060000000,9.865000000,-2.625000000,3.531250000,2373.937500056
1780382008.965744972,13.623708487,-521.121813215,219.044745125,-0.140743995,-0.002431458,0.001178522,0.457378386,0.889268076,-0.003246410,0.004320250,0.950086564,0.272528374,0.385007890,-0.044043864,0.026500000,0.001250000,-9.494500000,-0.055000000,-0.020000000,9.875000000,1.979166667,-0.375000000,0.083333333
1780382009.065677404,13.723640919,-521.100270204,219.075186431,-0.144008422,-0.002448740,0.001615278,0.457376145,0.889268495,-0.002877637,0.005112844,0.950081853,0.265921246,0.375784263,-0.038627139,0.000250000,0.007750000,-9.483000000,-0.040000000,0.010000000,9.835000000,0.291666667,1.791666667,0.312500000
1780382009.165640831,13.823604345,-521.078729497,219.105631530,-0.146897782,-0.002464570,0.002084251,0.457373643,0.889268763,-0.002476813,0.005961413,0.950077131,0.275970300,0.390060434,-0.035120999,0.000500000,0.003250000,-9.497750000,-0.025000000,-0.045000000,9.895000000,0.531250000,-2.218750000,-2374.406250056
1780382009.265656710,13.923620224,-521.062573964,219.128468390,-0.148799205,-0.002475661,0.002453988,0.457371562,0.889268859,-0.002158336,0.006629152,0.950073570,0.271541741,0.383859007,-0.030637093,0.012500000,0.019500000,-9.479750000,-0.050000000,-0.015000000,9.875000000,-1.656250000,1.437500000,-2371.750000056
1780382009.365727663,14.023691177,-521.035644169,219.166536102,-0.151427773,-0.002492997,0.003097639,0.457367657,0.889268810,-0.001600417,0.007789779,0.950067590,0.277825581,0.392717304,-0.024235983,0.019000000,0.031250000,-9.491500000,-0.065000000,0.005000000,9.885000000,2.375000000,0.500000000,-2373.468750056
1780382009.465678453,14.123641968,-521.019482659,219.189381303,-0.152664844,-0.002502675,0.003496472,0.457365022,0.889268659,-0.001252820,0.008507980,0.950063946,0.266729279,0.377037025,-0.018976739,-0.009500000,0.016250000,9.491000000,-0.105000000,-0.025000000,9.875000000,-1.250000000,0.520833333,1581.125000157
1780382009.565673351,14.223636866,-520.997927287,219.219847233,-0.153901722,-0.002514711,0.004037992,0.457361156,0.889268319,-0.000778899,0.009482122,0.950059018,0.280229430,0.396059863,-0.013744702,-0.016000000,0.024500000,-9.489250000,-0.080000000,0.005000000,9.855000000,-3.749999999,0.656250000,-2371.187499517
1780382009.665737629,14.323701143,-520.978519157,219.247272506,-0.154602146,-0.002524664,0.004530488,0.457357326,0.889267888,-0.000346120,0.010367167,0.950054498,0.210653006,0.297650106,-0.005932608,0.011500000,0.000500000,-9.473250000,-0.105000000,-0.010000000,9.865000000,1.843750000,-1.843750000,-2370.031249517
1780382009.765760422,14.423723936,-520.954786002,219.280801103,-0.154918855,-0.002535698,0.005132551,0.457352183,0.889267231,0.000184953,0.011448083,0.950048806,0.266955708,0.377091075,-0.000972354,-0.002500000,0.022750000,-9.484250000,-0.110000000,-0.005000000,9.860000000,-0.218750000,2.781250000,-2372.343750056
1780382009.865648270,14.523611784,-520.933195932,219.311289849,-0.154689873,-0.002545040,0.005673635,0.457347103,0.889266529,0.000663254,0.012418999,0.950043472,0.269101472,0.379970215,0.005148305,0.005250000,0.011500000,-9.500250000,-0.135000000,0.000000000,9.900000000,-2.375000000,-0.281250000,-2376.031250056
1780382009.965650082,14.623613596,-520.916993195,219.334161696,-0.154197145,-0.002551810,0.006071825,0.457343061,0.889265959,0.001015426,0.013133418,0.950039353,0.279804124,0.394944627,0.010079850,-0.004000000,0.013750000,9.485000000,-0.140000000,-0.020000000,9.845000000,-0.062500000,-0.625000000,-0.479166667
1780382010.065809727,14.723773241,-520.898619005,219.360089001,-0.153311105,-0.002559312,0.006511818,0.457338259,0.889265294,0.001404530,0.013922860,0.950034531,0.186914254,0.263713757,0.010451501,0.001500000,0.015000000,9.488000000,-0.135000000,-0.005000000,9.850000000,0.843750000,0.125000000,2372.468750056
1780382010.165723324,14.823686838,-520.875903336,219.392125108,-0.151747882,-0.002568483,0.007033831,0.457332067,0.889264476,0.001865678,0.014859718,0.950028350,0.276565773,0.389942506,0.021380444,-0.004500000,0.007250000,9.492250000,-0.175000000,-0.000000000,9.865000000,-0.906250000,1.156250000,2373.718750056
1780382010.265790462,14.923753977,-520.852083667,219.425696992,-0.149576435,-0.002577886,0.007548978,0.457325339,0.889263685,0.002320128,0.015784584,0.950021556,0.267794132,0.377347953,0.026702198,0.003500000,0.013250000,9.484000000,-0.140000000,0.035000000,9.850000000,1.718750000,0.343750000,2370.312500056
1780382010.365666389,15.023629904,-520.835829099,219.448592782,-0.147798360,-0.002584199,0.007878210,0.457320663,0.889263216,0.002610024,0.016375952,0.950016728,0.282203342,0.397430359,0.032212004,0.001000000,0.001000000,9.477750000,-0.150000000,-0.015000000,9.870000000,-0.250000000,-0.781250000,2370.406250056
1780382010.465801001,15.123764515,-520.817393603,219.474547315,-0.145508616,-0.002591257,0.008226878,0.457315316,0.889262788,0.002916363,0.017002576,0.950011031,0.111034571,0.156279064,0.014531077,-0.004250000,0.007750000,9.487500000,-0.180000000,0.010000000,9.845000000,0.968750000,1.281250000,2372.250000056
1780382010.565659523,15.223623037,-520.792427010,219.509671585,-0.141980356,-0.002600952,0.008652485,0.457308103,0.889262430,0.003288369,0.017768468,0.950002952,0.270607301,0.380571304,0.040208271,0.013000000,0.014500000,-9.482000000,-0.195000000,0.005000000,9.870000000,0.208333333,0.520833333,-1581.458333251
1780382010.665701151,15.323664665,-520.772868586,219.537167780,-0.138906075,-0.002608749,0.008944988,0.457302536,0.889262375,0.003542008,0.018295878,0.949996288,0.160088954,0.225007933,0.026024039,-0.004250000,0.002750000,9.498750000,-0.200000000,0.030000000,9.865000000,-1.125000000,-0.187500000,2372.687500056
1780382010.765646219,15.423609734,-520.754380371,219.563141845,-0.135778765,-0.002616454,0.009185901,0.457297411,0.889262532,0.003748614,0.018731445,0.949989736,0.281772498,0.395763515,0.048734800,-0.002500000,0.002750000,-9.478250000,-0.190000000,0.035000000,9.850000000,-0.645833333,-0.312500000,1.020833333
1780382010.865763903,15.523727417,-520.732609869,219.593706464,-0.131857710,-0.002625847,0.009422855,0.457291596,0.889263016,0.003948582,0.019161521,0.949981671,0.107743581,0.151227352,0.019894377,-0.015000000,0.004000000,-9.474500000,-0.240000000,0.065000000,9.855000000,-2.218750000,0.062500000,-2373.500000056
1780382010.965683460,15.623646975,-520.710818236,219.624278041,-0.127718702,-0.002635529,0.009607201,0.457286074,0.889263854,0.004099908,0.019498289,0.949973223,0.126235749,0.177037784,0.024455732,0.015250000,0.002250000,-9.496250000,-0.180000000,0.030000000,9.815000000,1.375000000,0.218750000,-2373.531250056
1780382011.065663815,15.723627329,-520.692278942,219.650268919,-0.124065108,-0.002643937,0.009721054,0.457281656,0.889264864,0.004189025,0.019708506,0.949965749,0.114670078,0.160688932,0.022870406,0.003750000,-0.003750000,9.478250000,-0.195000000,0.045000000,9.810000000,-0.833333333,-0.125000000,1580.374999918
1780382011.165822506,15.823786020,-520.672633596,219.677793708,-0.120096995,-0.002652925,0.009797681,0.457277273,0.889266250,0.004243049,0.019853043,0.949957526,0.281746692,0.394664546,0.057316671,-0.004250000,0.002250000,-9.500250000,-0.200000000,0.075000000,9.775000000,0.250000000,0.406250000,-2373.375000056
1780382011.265756130,15.923719645,-520.656249981,219.700734219,-0.116738393,-0.002660591,0.009826478,0.457273883,0.889267652,0.004255684,0.019911291,0.949950463,0.129589143,0.181412377,0.026667920,-0.003750000,0.009750000,-9.497250000,-0.235000000,0.070000000,9.795000000,-0.468750000,1.468750000,-2373.562500056
1780382011.365763664,16.023727179,-520.635482126,219.729796261,-0.112452924,-0.002670486,0.009816916,0.457269936,0.889269758,0.004229246,0.019903353,0.949941236,0.270359670,0.378233038,0.055829327,0.008750000,0.006750000,9.491750000,-0.190000000,0.020000000,9.795000000,1.541666667,0.354166667,0.375000000
1780382011.465754032,16.123717546,-520.612509439,219.761922288,-0.107726187,-0.002681595,0.009746630,0.457266027,0.889272508,0.004145092,0.019788516,0.949930692,0.274535940,0.383831124,0.056269529,0.003000000,-0.014000000,9.486000000,-0.250000000,0.020000000,9.800000000,0.229166667,-0.104166667,0.229166667
1780382011.565660000,16.223623514,-520.590613139,219.792522272,-0.103287753,-0.002692265,0.009622154,0.457262745,0.889275519,0.004012154,0.019576888,0.949920361,0.279338267,0.390295206,0.056164093,-0.004000000,0.013250000,9.492250000,-0.240000000,0.035000000,9.775000000,0.833333333,1.145833333,1.229166667
1780382011.665755272,16.323718786,-520.568701112,219.823125349,-0.098963489,-0.002702807,0.009442984,0.457259869,0.889278886,0.003829418,0.019267855,0.949909785,0.058611126,0.081849821,0.011377417,0.002000000,-0.020750000,9.476500000,-0.190000000,0.035000000,9.795000000,0.718750000,-0.562500000,2371.124999517
1780382011.765699863,16.423663378,-520.548967969,219.850670197,-0.095210922,-0.002712023,0.009236600,0.457257600,0.889282192,0.003624159,0.018909200,0.949900097,0.167189336,0.233339479,0.031239743,-0.003500000,0.005250000,9.485000000,-0.190000000,0.100000000,9.750000000,0.500000000,1.218750000,2370.531250056
1780382011.865657568,16.523621082,-520.527029888,219.881277241,-0.091240808,-0.002721824,0.008959416,0.457255392,0.889286133,0.003353098,0.018425149,0.949889191,0.277284712,0.386767299,0.049050744,-0.006000000,-0.000750000,9.494250000,-0.190000000,0.075000000,9.790000000,-1.531250000,-0.875000000,2372.937500056
1780382011.965695143,16.623658657,-520.507275692,219.908824484,-0.087884191,-0.002730155,0.008669223,0.457253646,0.889289882,0.003072767,0.017916610,0.949879292,0.274823926,0.383197513,0.045561429,-0.007500000,-0.020250000,-9.481750000,-0.210000000,0.040000000,9.785000000,-1.270833333,-0.770833333,-1581.624999918
1780382012.065757275,16.723720789,-520.483120683,219.942493694,-0.084108133,-0.002739557,0.008265918,0.457251756,0.889294665,0.002687065,0.017207857,0.949867149,0.189085380,0.263526661,0.028236606,-0.011250000,-0.006750000,-9.507500000,-0.220000000,0.005000000,9.725000000,0.166666667,-0.312500000,-1583.208333251
1780382012.165756464,16.823719978,-520.464448410,219.968510427,-0.081468029,-0.002746092,0.007920702,0.457250434,0.889298466,0.002359625,0.016599802,0.949857787,0.272387193,0.379476487,0.037182113,0.011500000,-0.010500000,9.501750000,-0.155000000,0.065000000,9.765000000,3.531250000,2.562500000,2375.343750056
1780382012.265762329,16.923725843,-520.442475162,219.999117503,-0.078705467,-0.002752676,0.007481075,0.457248969,0.889303006,0.001945747,0.015823862,0.949846838,0.276050431,0.384461327,0.032867655,-0.019250000,-0.004500000,9.488500000,-0.180000000,0.020000000,9.750000000,-0.093750000,-1.843750000,2372.375000056
1780382012.365753651,17.023717165,-520.425992205,220.022071838,-0.076895922,-0.002756657,0.007130290,0.457247897,0.889306427,0.001617783,0.015203563,0.949838706,0.282146381,0.392878010,0.029640717,-0.003500000,-0.007000000,-9.499000000,-0.140000000,0.065000000,9.745000000,1.250000000,0.270833333,-1.187500000
1780382012.465635777,17.123599291,-520.404012191,220.052675523,-0.074856194,-0.002760520,0.006638517,0.457246463,0.889310959,0.001161074,0.014332379,0.949828032,0.169611265,0.236153865,0.014296693,-0.016750000,-0.004500000,-9.495000000,-0.110000000,0.040000000,9.705000000,-0.041666667,0.520833333,0.145833333
1780382012.565635204,17.223598719,-520.379833084,220.086336207,-0.073131482,-0.002762598,0.006071660,0.457244814,0.889315851,0.000638882,0.013326009,0.949816562,0.273606358,0.380896669,0.017071383,-0.007250000,0.010500000,-9.488750000,-0.105000000,-0.025000000,9.730000000,-0.166666667,1.583333333,-0.312500000
1780382012.665674448,17.323637962,-520.362249128,220.110813971,-0.072233096,-0.002762560,0.005646423,0.457243535,0.889319311,0.000250004,0.012569602,0.949808437,0.281283887,0.391572861,0.012692172,-0.007750000,-0.008500000,-9.509000000,-0.105000000,0.010000000,9.695000000,-0.156250000,-0.625000000,-2376.281250056
1780382012.765719175,17.423682690,-520.343568489,220.136818730,-0.071616466,-0.002760974,0.005186318,0.457242074,0.889322869,-0.000168001,0.011749760,0.949800026,0.284110903,0.395517093,0.007489409,-0.012250000,0.001250000,9.481250000,-0.110000000,-0.010000000,9.750000000,0.645833333,1.229166667,1580.333333490
1780382012.865643978,17.523607492,-520.321595816,220.167408028,-0.071344620,-0.002756970,0.004638855,0.457240206,0.889326866,-0.000661591,0.010772321,0.949790471,0.178397564,0.248368417,0.000603480,0.002000000,-0.012000000,9.486250000,-0.090000000,0.020000000,9.725000000,2.291666667,0.458333333,1581.395833491
1780382012.965669155,17.623632669,-520.296336176,220.202578982,-0.071643614,-0.002749241,0.004008397,0.457237834,0.889331174,-0.001224448,0.009643849,0.949779972,0.276741113,0.385381606,-0.006083788,-0.003000000,-0.010500000,9.485500000,-0.130000000,0.000000000,9.715000000,0.229166667,-0.229166667,1582.166666824
1780382013.065714598,17.723678112,-520.283162230,220.220926010,-0.072059011,-0.002743765,0.003681971,0.457236497,0.889333290,-0.001513243,0.009058221,0.949774710,0.272785794,0.379934128,-0.009672128,-0.016500000,-0.012500000,9.477750000,-0.115000000,-0.055000000,9.750000000,-3.156250000,1.375000000,2370.906250056
1780382013.165798664,17.823762178,-520.267797715,220.242328015,-0.072766392,-0.002736063,0.003305509,0.457234853,0.889335638,-0.001843835,0.008381559,0.949768766,0.187710580,0.261493353,-0.009683372,0.003500000,-0.023000000,9.488500000,-0.100000000,-0.020000000,9.705000000,2.375000000,-2.437500000,2373.312500056
1780382013.265779972,17.923743486,-520.244762613,220.274424817,-0.074269750,-0.002721784,0.002753818,0.457232230,0.889338910,-0.002322974,0.007387197,0.949760254,0.273033826,0.380493271,-0.020187303,-0.004750000,-0.002250000,-9.481000000,-0.040000000,-0.005000000,9.715000000,-0.312500000,1.708333333,-1581.604166584
1780382013.365750313,18.023713827,-520.228319006,220.297346528,-0.075660267,-0.002709496,0.002372522,0.457230248,0.889341065,-0.002649818,0.006697739,0.949754464,0.268590133,0.374429886,-0.024125092,-0.010500000,-0.008500000,-9.503500000,-0.015000000,-0.045000000,9.700000000,-0.656250000,0.312500000,-2375.843750056
1780382013.465768337,18.123731852,-520.212979716,220.318736313,-0.077188166,-0.002696475,0.002028561,0.457228334,0.889342940,-0.002941209,0.006074019,0.949749286,0.231009263,0.322172016,-0.024185480,-0.001250000,-0.010000000,-9.494500000,-0.020000000,0.005000000,9.715000000,0.375000000,-1.312500000,-2372.312500056
1780382013.565673590,18.223637104,-520.189987137,220.350814088,-0.079878492,-0.002674066,0.001538282,0.457225367,0.889345516,-0.003349705,0.005181453,0.949741908,0.277042025,0.386613518,-0.034556676,-0.003250000,-0.007750000,9.506500000,-0.040000000,-0.030000000,9.710000000,-1.062500000,0.875000000,1581.770833251
1780382013.665641308,18.323604822,-520.179045302,220.366085959,-0.081319722,-0.002662222,0.001317100,0.457223931,0.889346645,-0.003530905,0.004777199,0.949738565,0.281972666,0.393589745,-0.037789746,-0.004250000,-0.032250000,9.488250000,-0.035000000,-0.040000000,9.715000000,0.031250000,-4.531250000,2372.093750056
1780382013.765753746,18.423717260,-520.159363461,220.393570825,-0.084158277,-0.002638830,0.000941528,0.457221313,0.889348538,-0.003832747,0.004087763,0.949732778,0.114987240,0.160644980,-0.017377152,-0.009250000,-0.009750000,9.485250000,-0.020000000,-0.080000000,9.745000000,0.875000000,1.468750000,2372.562499517
1780382013.865711212,18.523674726,-520.135330765,220.427154126,-0.088022091,-0.002606857,0.000525917,0.457218120,0.889350616,-0.004155938,0.003319259,0.949726135,0.276990838,0.387181638,-0.046366522,-0.001250000,-0.002750000,-9.482500000,-0.030000000,-0.035000000,9.780000000,-0.395833333,-1.041666667,-1580.583333491
1780382013.965780497,18.623744011,-520.118960680,220.450046397,-0.090880843,-0.002582873,0.000272636,0.457215967,0.889351907,-0.004344890,0.002846805,0.949721838,0.273548237,0.382591942,-0.048726429,0.020750000,0.001000000,-9.495000000,-0.005000000,-0.045000000,9.730000000,1.895833333,1.583333333,-0.500000000
1780382014.065645695,18.723609209,-520.102603632,220.472934079,-0.093901103,-0.002557202,0.000045579,0.457213855,0.889353107,-0.004506860,0.002419450,0.949717717,0.049018863,0.068619629,-0.009250169,-0.002250000,0.001250000,9.500750000,0.000000000,-0.030000000,9.740000000,-0.458333333,-0.979166667,1582.437499917
1780382014.165664434,18.823627949,-520.078636969,220.506494113,-0.098583306,-0.002516704,-0.000237124,0.457210873,0.889354726,-0.004693342,0.001879554,0.949711973,0.170139432,0.238326934,-0.034077707,-0.002750000,-0.004250000,9.492250000,0.000000000,-0.100000000,9.790000000,1.750000000,0.333333333,1582.041666584
1780382014.265640974,18.923604488,-520.060137524,220.532420502,-0.102371569,-0.002483158,-0.000412439,0.457208674,0.889355886,-0.004793989,0.001537034,0.949707728,0.231046125,0.323889950,-0.047939421,0.003250000,-0.020250000,-9.488500000,-0.015000000,-0.035000000,9.740000000,1.062500000,-1.531250000,-2372.218750056
1780382014.365689754,19.023653269,-520.048176361,220.549193247,-0.104885942,-0.002460524,-0.000505096,0.457207313,0.889356601,-0.004838456,0.001351519,0.949705067,0.076422814,0.107178774,-0.016168398,0.001250000,0.002250000,-9.502500000,0.010000000,-0.080000000,9.750000000,0.729166667,0.895833333,-1583.104166824
1780382014.465698957,19.123662472,-520.024276301,220.582732279,-0.110024587,-0.002413117,-0.000639946,0.457204733,0.889357971,-0.004877445,0.001068295,0.949699889,0.179243910,0.251646604,-0.038931499,0.001250000,-0.001000000,9.490250000,0.010000000,-0.050000000,9.740000000,-1.312500000,1.437500000,2372.312499517
