sim_time_sec,elapsed_time_sec,global_x,global_y,global_z,global_qx,global_qy,global_qz,global_qw,roll,pitch,yaw,global_vx,global_vy,global_vz,imu_angular_velocity_x,imu_angular_velocity_y,imu_angular_velocity_z,imu_linear_acceleration_x,imu_linear_acceleration_y,imu_linear_acceleration_z,imu_angular_acceleration_x,imu_angular_acceleration_y,imu_angular_acceleration_z
1780381479.587417126,1.123182297,-533.139042826,196.906680184,-0.099618504,-0.001884198,0.006512884,0.524780041,0.851210867,0.003628280,0.013065626,1.104965430,0.050824410,0.099796236,0.036387261,-0.022500000,0.002750000,-9.484000000,0.145000000,0.100000000,9.770000000,-1.218750000,1.000000000,-2372.343750056
1780381479.687343836,1.223109007,-533.133102687,196.918240111,-0.096263619,-0.002027084,0.006087254,0.524780836,0.851213199,0.002938220,0.012490976,1.104958984,0.042641986,0.082896813,0.020193909,-0.007500000,-0.007250000,-9.496250000,0.145000000,0.060000000,9.700000000,-1.093750000,-0.343750000,-2372.781250056
1780381479.787366152,1.323131323,-533.128085401,196.928038291,-0.094252639,-0.002161142,0.005818727,0.524780960,0.851214671,0.002428105,0.012174524,1.104954081,0.067637423,0.132609355,0.024367087,-0.003750000,-0.017750000,-9.494250000,0.110000000,0.025000000,9.745000000,1.593750000,-1.375000000,-2373.531250056
1780381479.887354851,1.423120022,-533.122242194,196.939587060,-0.092498990,-0.002210911,0.005568027,0.524780418,0.851216554,0.002080201,0.011799953,1.104948673,0.075280658,0.149469843,0.020264883,0.005500000,0.004750000,-9.486250000,0.065000000,-0.015000000,9.720000000,0.593750000,1.312500000,-2373.281250056
1780381479.987372398,1.523137569,-533.115830054,196.952373831,-0.091041979,-0.002147861,0.005302269,0.524779464,0.851219001,0.001908567,0.011281329,1.104942973,0.086369143,0.172495128,0.017751086,-0.008500000,-0.000750000,-9.485750000,0.040000000,0.010000000,9.795000000,0.312500000,0.500000000,-2373.906250056
1780381480.087293148,1.623058319,-533.108826515,196.966336103,-0.089818254,-0.002035363,0.004956222,0.524778693,0.851221837,0.001736847,0.010574116,1.104937101,0.045475359,0.090491905,0.007188456,0.005250000,-0.003750000,-9.485250000,0.050000000,0.070000000,9.770000000,1.093750000,0.656250000,-2372.437500056
1780381480.187407970,1.723173141,-533.101613125,196.980618260,-0.088862242,-0.001956557,0.004519544,0.524778522,0.851224558,0.001412648,0.009747966,1.104931657,0.020047387,0.039568949,0.002285373,0.012250000,-0.009250000,9.498250000,0.055000000,0.030000000,9.750000000,1.666666667,-0.208333333,0.666666667
1780381480.287389278,1.823154449,-533.095132203,196.993368609,-0.088243214,-0.001934853,0.004083493,0.524778755,0.851226667,0.000991904,0.008982816,1.104927410,0.102094669,0.200585749,0.008540687,-0.022750000,-0.005500000,9.504000000,0.050000000,0.010000000,9.745000000,-2.125000000,0.968750000,2373.968749516
1780381480.387331724,1.923096895,-533.088749756,197.005894408,-0.087855607,-0.001940844,0.003652706,0.524779036,0.851228438,0.000529542,0.008255697,1.104923759,0.021133589,0.041461761,0.000940207,-0.014500000,-0.007250000,9.504500000,0.115000000,-0.020000000,9.725000000,-2.375000000,1.656250000,2373.593749516
1780381480.487393618,2.023158789,-533.080293732,197.022523816,-0.087683558,-0.001949107,0.003137519,0.524779088,0.851230442,-0.000025270,0.007387270,1.104919465,0.021127276,0.041626744,-0.000024303,-0.007500000,-0.016750000,-9.487000000,0.070000000,-0.050000000,9.705000000,0.104166667,-1.875000000,-1581.395833491
1780381480.587325811,2.123090982,-533.070524263,197.041851163,-0.087948303,-0.001922420,0.002672746,0.524778448,0.851232484,-0.000467664,0.006567994,1.104914790,0.139123956,0.275926792,-0.006288769,0.009750000,-0.016000000,-9.492500000,0.105000000,-0.035000000,9.715000000,0.937500000,-1.208333333,-1582.916666584
1780381480.687416792,2.223181963,-533.063291119,197.056233948,-0.088427234,-0.001884087,0.002419577,0.524777600,0.851233849,-0.000668130,0.006096743,1.104911413,0.124858556,0.248489642,-0.009504354,-0.009750000,-0.001000000,9.502750000,0.095000000,-0.035000000,9.735000000,-1.156250000,-0.250000000,2371.468750056
1780381480.787410736,2.323175907,-533.053309033,197.076115008,-0.089404650,-0.001846989,0.002157498,0.524776274,0.851235453,-0.000880052,0.005611619,1.104907039,0.054413181,0.108337098,-0.006085105,0.002500000,0.001500000,-9.493000000,0.095000000,0.020000000,9.795000000,1.406250000,0.593750000,-2371.562500056
1780381480.887370348,2.423135519,-533.043980882,197.094659910,-0.090567961,-0.001865347,0.001953683,0.524775213,0.851236559,-0.001125231,0.005283894,1.104903569,0.070167484,0.139297608,-0.009361438,-0.003750000,-0.006250000,9.499000000,0.100000000,0.015000000,9.790000000,-0.125000000,0.270833333,1581.937499918
1780381480.987221718,2.522986889,-533.033231918,197.115959541,-0.092122858,-0.001954301,0.001723848,0.524774383,0.851237367,-0.001517905,0.004985962,1.104900496,0.136499773,0.270209983,-0.020657041,-0.006000000,-0.022000000,-9.476750000,0.050000000,-0.010000000,9.775000000,-0.781250000,-1.656250000,-2371.812500056
1780381481.087354183,2.623119354,-533.022669760,197.136855309,-0.093820418,-0.002070180,0.001494051,0.524773854,0.851237854,-0.001956376,0.004716356,1.104898256,0.143032983,0.282989502,-0.023722314,-0.018250000,-0.010500000,9.494000000,0.095000000,-0.025000000,9.765000000,-0.604166667,0.125000000,1582.416666824
1780381481.187300682,2.723065853,-533.013540042,197.154942820,-0.095400064,-0.002149499,0.001303234,0.524773439,0.851238227,-0.002291692,0.004474740,1.104896643,0.147500373,0.292462105,-0.026049461,-0.008750000,-0.008500000,-9.490500000,0.045000000,-0.025000000,9.765000000,-0.562500000,-0.312500000,-2373.499999516
1780381481.287384510,2.823149681,-533.003041271,197.175812667,-0.097327415,-0.002186138,0.001108280,0.524772855,0.851238770,-0.002558686,0.004181285,1.104894858,0.146729963,0.292099467,-0.027480435,-0.004250000,-0.009750000,9.487000000,0.095000000,-0.035000000,9.770000000,0.156250000,-2.062500000,2371.687500056
1780381481.387314320,2.923079491,-532.991112300,197.199614234,-0.099635229,-0.002161032,0.000927655,0.524772028,0.851239560,-0.002705521,0.003847421,1.104892764,0.153111427,0.305867118,-0.030134357,-0.009000000,-0.016500000,-9.497250000,0.075000000,-0.015000000,9.810000000,-0.593750000,-2.781250000,-2371.468750056
1780381481.487278700,3.023043871,-532.977054639,197.227714814,-0.102469330,-0.002103801,0.000764391,0.524771042,0.851240473,-0.002779441,0.003509397,1.104890456,0.145463186,0.290787504,-0.029701856,0.006000000,-0.005000000,9.490250000,0.070000000,-0.035000000,9.815000000,-0.145833333,-0.125000000,1582.187500157
1780381481.587341785,3.123106956,-532.961996598,197.257780712,-0.105585995,-0.002098608,0.000637535,0.524770296,0.851241051,-0.002903744,0.003287971,1.104888682,0.094339320,0.188192627,-0.019669310,0.006750000,0.016500000,-9.488000000,0.020000000,-0.040000000,9.770000000,2.312500000,2.687499999,-2372.812499517
1780381481.687362432,3.223127604,-532.945916007,197.289833841,-0.108961509,-0.002183423,0.000570505,0.524769923,0.851241115,-0.003118492,0.003262870,1.104887666,0.102566331,0.204419426,-0.021607728,-0.013500000,0.009750000,-9.500000000,0.100000000,-0.030000000,9.810000000,-0.333333333,0.979166667,-0.375000000
1780381481.787388802,3.323153973,-532.930818699,197.319951843,-0.112146949,-0.002292739,0.000602988,0.524769724,0.851240928,-0.003270512,0.003432902,1.104886997,0.167238779,0.333983273,-0.035275018,0.015750000,0.004250000,9.489000000,0.060000000,-0.090000000,9.795000000,3.781250000,0.937500000,2373.687500056
1780381481.887386560,3.423151731,-532.920838457,197.339910371,-0.114243347,-0.002349806,0.000682129,0.524769540,0.851240826,-0.003284608,0.003627533,1.104886447,0.169142860,0.338492404,-0.035424048,-0.000500000,0.001500000,-9.493000000,0.055000000,-0.030000000,9.770000000,0.479166667,-0.687500000,-0.687500000
1780381481.987348557,3.523113728,-532.911433932,197.358757415,-0.116194317,-0.002385078,0.000792960,0.524769297,0.851240781,-0.003228339,0.003853240,1.104885819,0.164408250,0.329670255,-0.033917644,0.020250000,-0.000500000,9.487750000,0.020000000,-0.030000000,9.795000000,1.520833333,-0.520833333,1580.229166584
1780381482.087274075,3.623039246,-532.901258751,197.379176177,-0.118256699,-0.002407980,0.000939795,0.524768964,0.851240772,-0.003113222,0.004127261,1.104885057,0.018326809,0.036801946,-0.003660604,-0.013000000,0.014500000,-9.502000000,0.035000000,-0.010000000,9.830000000,-2.562500000,0.250000000,-2374.218750056
1780381482.187390804,3.723155975,-532.884754741,197.412304384,-0.121435616,-0.002440651,0.001199315,0.524768403,0.851240699,-0.002896472,0.004603380,1.104883935,0.127783912,0.256405909,-0.023809782,0.008250000,0.008500000,-9.497500000,0.010000000,-0.005000000,9.805000000,2.250000000,-1.312500000,-2371.968750056
1780381482.287299633,3.823064804,-532.873594600,197.434683495,-0.123433260,-0.002476406,0.001371149,0.524768082,0.851240535,-0.002777002,0.004933453,1.104883378,0.162994613,0.326749376,-0.028496505,-0.007750000,0.008000000,9.482000000,0.010000000,-0.025000000,9.815000000,0.229166667,1.000000000,-2.500000000
1780381482.387279272,3.923044443,-532.863022184,197.455865220,-0.125196700,-0.002521581,0.001529433,0.524767818,0.851240295,-0.002687789,0.005250343,1.104882974,0.181922445,0.364396437,-0.029603753,-0.007500000,0.009250000,-9.490000000,-0.015000000,-0.030000000,9.835000000,-0.104166667,0.604166667,-1580.666666824
1780381482.487374306,4.023139477,-532.849494661,197.482963636,-0.127263815,-0.002582256,0.001737728,0.524767457,0.851239936,-0.002572477,0.005668646,1.104882503,0.105162347,0.210724801,-0.015376303,0.003250000,-0.002750000,9.491250000,0.030000000,-0.055000000,9.840000000,0.906250000,-1.937500000,2374.874999516
1780381482.587306976,4.123072147,-532.834392415,197.513247339,-0.129322969,-0.002630824,0.002001616,0.524766842,0.851239587,-0.002378207,0.006168886,1.104881777,0.181450683,0.364074434,-0.023556584,-0.007500000,0.014500000,-9.501500000,-0.030000000,-0.065000000,9.835000000,-0.020833333,0.145833333,-1582.375000157
1780381482.687332153,4.223097324,-532.819881863,197.542394541,-0.131058572,-0.002648997,0.002301981,0.524765909,0.851239346,-0.002093907,0.006699331,1.104880763,0.185104923,0.372007707,-0.021000850,-0.007500000,0.023250000,-9.483750000,-0.005000000,-0.035000000,9.815000000,-0.729166667,0.979166667,-1581.770833491
1780381482.787318468,4.323083639,-532.808919849,197.564436406,-0.132210093,-0.002652310,0.002557690,0.524764972,0.851239184,-0.001831175,0.007138151,1.104879816,0.189491149,0.381043946,-0.019097665,-0.002750000,0.010500000,9.503250000,-0.050000000,-0.055000000,9.845000000,-1.937500000,-0.187500000,2374.875000056
1780381482.887415648,4.423180819,-532.794932248,197.592561688,-0.133470900,-0.002662794,0.002907393,0.524763547,0.851238907,-0.001482005,0.007744525,1.104878478,0.169988966,0.341712158,-0.014164851,-0.002250000,0.012250000,-9.489750000,-0.025000000,-0.045000000,9.840000000,-3.031250000,1.468750000,-2370.875000056
1780381482.987395763,4.523160934,-532.780079128,197.622398075,-0.134538136,-0.002699350,0.003290010,0.524761847,0.851238447,-0.001142678,0.008434298,1.104876985,0.188860646,0.379210790,-0.012189864,0.011750000,0.016250000,-9.503000000,-0.025000000,0.005000000,9.840000000,0.125000000,2.312500000,-2373.156250056
1780381483.087339401,4.623104572,-532.764343445,197.653968358,-0.135345743,-0.002765995,0.003695311,0.524759872,0.851237787,-0.000830772,0.009194272,1.104875316,0.187982579,0.376998984,-0.008099236,0.002250000,0.019500000,-9.486500000,-0.060000000,-0.015000000,9.860000000,1.437500000,2.375000000,-2373.156250056
1780381483.187275410,4.723040581,-532.753024100,197.676667439,-0.135714617,-0.002818763,0.003985886,0.524758305,0.851237269,-0.000615648,0.009744363,1.104874012,0.195255542,0.391561750,-0.005335647,0.016250000,0.024250000,-9.494500000,-0.070000000,0.030000000,9.850000000,1.812500000,0.968750000,-2373.468750056
1780381483.287273169,4.823038340,-532.737840552,197.707123008,-0.135929001,-0.002874783,0.004376612,0.524755917,0.851236635,-0.000300951,0.010468375,1.104872036,0.083693073,0.167922517,-0.000521402,-0.012250000,0.023000000,9.497750000,-0.060000000,-0.025000000,9.875000000,-1.229166667,0.479166667,1581.312499918
1780381483.387380600,4.923145771,-532.722562090,197.737789436,-0.135825194,-0.002901832,0.004769494,0.524753135,0.851236148,0.000065330,0.011165655,1.104869750,0.190062718,0.381589611,0.002761352,0.011500000,0.010250000,-9.478750000,-0.070000000,0.000000000,9.855000000,1.031250000,0.468750000,-2371.375000056
1780381483.487375021,5.023140192,-532.703330712,197.776397851,-0.135254913,-0.002905459,0.005249313,0.524749182,0.851235748,0.000562726,0.011986367,1.104866448,0.193084263,0.387536622,0.007636512,0.007750000,0.013500000,-9.487750000,-0.105000000,0.035000000,9.860000000,0.375000000,-0.312500000,-2374.500000056
1780381483.587284327,5.123049498,-532.691717486,197.799696426,-0.134683714,-0.002906356,0.005521854,0.524746661,0.851235575,0.000847227,0.012451321,1.104864239,0.191820196,0.384730513,0.010346283,-0.001750000,0.013500000,-9.490250000,-0.040000000,-0.020000000,9.815000000,-0.281250000,-0.250000000,-2372.687500056
1780381483.687355280,5.223120451,-532.676144584,197.830901897,-0.133664265,-0.002920205,0.005861071,0.524743224,0.851235378,0.001179652,0.013043386,1.104861012,0.201971777,0.404523916,0.014588777,0.013250000,0.006750000,9.508500000,-0.115000000,0.000000000,9.875000000,1.166666667,-0.083333333,1583.520833491
1780381483.787401438,5.323166609,-532.660477081,197.862257374,-0.132363528,-0.002949381,0.006175079,0.524739718,0.851235219,0.001459521,0.013608624,1.104857449,0.056666026,0.113387123,0.005132161,-0.009750000,0.019000000,-9.481750000,-0.120000000,0.060000000,9.880000000,0.812500000,1.937500000,-2371.624999517
1780381483.887327671,5.423092842,-532.644727677,197.893755658,-0.130800646,-0.002982346,0.006472292,0.524736078,0.851235140,0.001715308,0.014149246,1.104853539,0.198456402,0.396886298,0.020835052,0.018500000,0.002250000,-9.486500000,-0.115000000,-0.005000000,9.835000000,-0.093750000,-0.531250000,-2371.281250056
1780381483.987274408,5.523039579,-532.624942634,197.933321211,-0.128514024,-0.003009457,0.006828692,0.524731241,0.851235242,0.002043168,0.014784497,1.104848164,0.182692268,0.365336157,0.022337478,-0.008500000,0.022750000,-9.498750000,-0.100000000,0.005000000,9.840000000,-0.104166667,0.354166667,-0.583333333
1780381484.087449312,5.623214483,-532.609040162,197.965119588,-0.126448849,-0.003017354,0.007096342,0.524727185,0.851235525,0.002310600,0.015248483,1.104843476,0.198443691,0.396727983,0.026630856,0.012750000,0.021000000,-9.485750000,-0.085000000,0.035000000,9.845000000,0.187500000,1.218750000,-2373.125000056
1780381484.187346220,5.723111391,-532.591465742,198.000235973,-0.123966400,-0.003023615,0.007355909,0.524722719,0.851236052,0.002572325,0.015696992,1.104837890,0.199619268,0.398708542,0.029032967,0.004000000,0.006000000,9.500000000,-0.155000000,0.000000000,9.820000000,2.031250000,-1.312500000,2376.312500056
1780381484.287431240,5.823196411,-532.572995396,198.037091089,-0.121168038,-0.003040535,0.007570373,0.524718266,0.851236856,0.002768557,0.016079904,1.104831535,0.201542110,0.401889672,0.031263657,0.008500000,0.019750000,9.488750000,-0.125000000,0.015000000,9.855000000,-0.593750000,2.218750000,2374.250000056
1780381484.387357712,5.923122883,-532.556856821,198.069250440,-0.118595293,-0.003063423,0.007704454,0.524714657,0.851237796,0.002870264,0.016332217,1.104825585,0.206089373,0.410496332,0.033336368,-0.004750000,0.015750000,-9.501250000,-0.180000000,0.045000000,9.840000000,0.041666667,1.270833333,-1582.145833251
1780381484.487272739,6.023037910,-532.539844009,198.103124725,-0.115788555,-0.003084656,0.007797809,0.524711093,0.851239066,0.002932037,0.016513456,1.104818953,0.093008555,0.185147664,0.015525437,-0.000750000,0.003750000,9.503500000,-0.135000000,0.040000000,9.830000000,-0.843750000,-0.781250000,2376.125000056
1780381484.587330103,6.123095274,-532.520329503,198.141965486,-0.112500604,-0.003092528,0.007854876,0.524707208,0.851240908,0.002978463,0.016618892,1.104810946,0.140170436,0.278960154,0.023723995,-0.004250000,0.001500000,9.505750000,-0.130000000,0.010000000,9.790000000,0.291666667,0.395833333,2.541666667
1780381484.687396765,6.223161936,-532.500745759,198.180930051,-0.109191862,-0.003084636,0.007862782,0.524703519,0.851243137,0.003000127,0.016624083,1.104802513,0.244247896,0.485869964,0.041110833,-0.009500000,0.013000000,-9.496250000,-0.170000000,0.065000000,9.820000000,-0.875000000,0.687500000,-2373.500000056
1780381484.787336349,6.323101521,-532.484371742,198.213483647,-0.106467363,-0.003078164,0.007828180,0.524700674,0.851245233,0.002974770,0.016558387,1.104795160,0.178764551,0.355270284,0.029470384,0.007500000,-0.017000000,9.485000000,-0.180000000,0.050000000,9.760000000,0.875000000,-2.875000000,1581.687499918
1780381484.887339592,6.423104763,-532.467124718,198.247736907,-0.103680578,-0.003081901,0.007747614,0.524697986,0.851247614,0.002883787,0.016425148,1.104787140,0.207666382,0.412269319,0.033067742,0.001500000,0.002750000,-9.495000000,-0.195000000,0.050000000,9.785000000,1.625000000,-1.562500000,-2375.468750056
1780381484.987316370,6.523081541,-532.449824963,198.282058282,-0.101006176,-0.003096578,0.007622542,0.524695601,0.851250160,0.002727466,0.016227615,1.104778855,0.204340422,0.405249625,0.030957488,-0.010250000,-0.020750000,9.483000000,-0.190000000,-0.015000000,9.805000000,-1.875000000,-1.562500000,1582.291666584
1780381485.087279797,6.623044968,-532.435787255,198.309890718,-0.098947125,-0.003110340,0.007492297,0.524693847,0.851252347,0.002567288,0.016020308,1.104772007,0.135598543,0.268794576,0.019448084,-0.005250000,-0.001750000,9.489500000,-0.185000000,0.035000000,9.730000000,0.666666667,1.375000000,1581.520833251
1780381485.187364817,6.723129988,-532.417584696,198.345972479,-0.096453962,-0.003121032,0.007290535,0.524691739,0.851255359,0.002337266,0.015688017,1.104763027,0.093455471,0.185278548,0.012289940,-0.010000000,0.014750000,-9.482000000,-0.185000000,0.065000000,9.785000000,-2.000000000,2.531250000,-2372.343750056
1780381485.287307739,6.823072910,-532.400174530,198.380477099,-0.094286522,-0.003120266,0.007065082,0.524689856,0.851258423,0.002101896,0.015303363,1.104754355,0.209695607,0.415540301,0.025045697,-0.007750000,-0.009500000,9.503750000,-0.145000000,0.065000000,9.750000000,-0.020833333,-0.645833333,1583.791666584
1780381485.387401581,6.923166752,-532.383562114,198.413390749,-0.092444569,-0.003114001,0.006819087,0.524688200,0.851261473,0.001854337,0.014877960,1.104746045,0.206181629,0.408410333,0.021762664,0.017750000,-0.003000000,-9.494250000,-0.190000000,0.035000000,9.770000000,0.906250000,2.875000000,-2374.218750056
1780381485.487310648,7.023075819,-532.368583782,198.443051462,-0.090993466,-0.003109729,0.006570274,0.524686842,0.851264283,0.001600438,0.014449850,1.104738552,0.084636314,0.167557702,0.007673735,-0.002750000,-0.007250000,-9.487000000,-0.110000000,0.035000000,9.725000000,-2.781250000,-0.281250000,-2372.218750056
1780381485.587346315,7.123111486,-532.351078038,198.477696625,-0.089570375,-0.003110251,0.006249074,0.524685403,0.851267586,0.001262406,0.013903523,1.104729850,0.212780767,0.421031650,0.015883646,-0.008500000,-0.016000000,-9.491250000,-0.135000000,0.015000000,9.785000000,-0.625000000,-2.531250000,-2372.656250056
1780381485.687317371,7.223082542,-532.335214722,198.509076977,-0.088550702,-0.003114045,0.005935621,0.524684180,0.851270569,0.000926946,0.013373818,1.104722059,0.210121549,0.415645853,0.012216173,-0.011250000,-0.005000000,-9.490000000,-0.115000000,0.040000000,9.750000000,-1.500000000,-0.562500000,-2372.843750056
1780381485.787377357,7.323142529,-532.320170364,198.538834600,-0.087832261,-0.003116179,0.005625682,0.524683029,0.851273376,0.000598008,0.012848352,1.104714796,0.188504631,0.372869235,0.007795739,-0.005750000,-0.016250000,-9.488000000,-0.110000000,0.005000000,9.775000000,0.062500000,-0.875000000,-2371.125000056
1780381485.887343168,7.423108339,-532.302604113,198.573584953,-0.087311175,-0.003112790,0.005255584,0.524681632,0.851276614,0.000215343,0.012214663,1.104706494,0.215627458,0.426584976,0.004767026,-0.021750000,-0.016250000,9.497250000,-0.145000000,-0.045000000,9.780000000,-2.020833334,-0.458333333,0.458333333
1780381485.987292290,7.523057461,-532.288374708,198.601740220,-0.087146677,-0.003105595,0.004952387,0.524680449,0.851279188,-0.000090622,0.011690885,1.104699933,0.228422309,0.452007873,0.001319837,-0.005250000,-0.012750000,9.482000000,-0.115000000,-0.040000000,9.770000000,0.604166667,0.604166667,-0.250000000
1780381486.087324381,7.623089552,-532.272460953,198.633229963,-0.087240044,-0.003096209,0.004610498,0.524679078,0.851281987,-0.000433457,0.011098928,1.104692785,0.117865779,0.233214492,-0.001607894,-0.014500000,-0.016000000,9.489000000,-0.140000000,-0.005000000,9.740000000,-1.062500000,-0.281250000,2374.593750056
1780381486.187301636,7.723066807,-532.259051534,198.659763792,-0.087546664,-0.003089991,0.004320211,0.524677901,0.851284258,-0.000727523,0.010598153,1.104686949,0.210580766,0.416658144,-0.005937136,0.005000000,-0.010750000,9.500750000,-0.100000000,-0.025000000,9.790000000,1.593750000,1.625000000,2375.031250056
1780381486.287271738,7.823036909,-532.250667190,198.676354415,-0.087843673,-0.003087421,0.004138028,0.524677159,0.851285630,-0.000914345,0.010285266,1.104683400,0.019711235,0.039010979,-0.000783515,-0.019250000,-0.008250000,-9.515250000,-0.090000000,0.000000000,9.755000000,-2.906250000,-2.500000000,-2374.781250056
1780381486.387320757,7.923085928,-532.230534689,198.716191713,-0.088882196,-0.003083887,0.003701814,0.524675337,0.851288774,-0.001366119,0.009538849,1.104675184,0.119430582,0.236343811,-0.007281128,-0.004750000,0.006500000,-9.499500000,-0.115000000,0.020000000,9.770000000,2.906250000,0.937500000,-2372.593750056
1780381486.487318754,8.023083925,-532.221304370,198.734459669,-0.089508641,-0.003081890,0.003504524,0.524674474,0.851290148,-0.001569763,0.009200840,1.104671567,0.208292364,0.412288521,-0.014708954,-0.005000000,-0.013500000,-9.506250000,-0.120000000,0.015000000,9.750000000,-0.375000000,-1.687500000,-2375.843750056
1780381486.587287903,8.123053074,-532.204521187,198.767688745,-0.090881705,-0.003074254,0.003154746,0.524672848,0.851292546,-0.001923833,0.008597284,1.104665234,0.216312006,0.428388674,-0.019129600,-0.009500000,-0.017500000,9.513250000,-0.100000000,-0.020000000,9.745000000,-1.781250000,-0.656250000,2375.843750056
1780381486.687325001,8.223090172,-532.189417503,198.797609876,-0.092365865,-0.003061454,0.002853589,0.524671316,0.851294599,-0.002218080,0.008071091,1.104659790,0.138287021,0.274040922,-0.014460273,-0.007750000,-0.010000000,9.488000000,-0.050000000,-0.025000000,9.750000000,-1.437500000,0.031250000,2374.718750056
1780381486.787336826,8.323101997,-532.175154778,198.825880031,-0.093972619,-0.003045118,0.002583434,0.524669819,0.851296443,-0.002473770,0.007593973,1.104654864,0.213135707,0.422516184,-0.025027750,0.002250000,-0.012500000,-9.483000000,-0.080000000,-0.000000000,9.755000000,1.104166667,0.562500000,-1579.895833251
1780381486.887304783,8.423069954,-532.162571931,198.850832120,-0.095546473,-0.003029253,0.002357555,0.524668478,0.851297982,-0.002683797,0.007192732,1.104650706,0.216616901,0.429582355,-0.027904383,0.007250000,-0.013000000,-9.498000000,-0.100000000,0.005000000,9.775000000,1.218750000,-0.437500000,-2372.249999517
1780381486.987314224,8.523079395,-532.147474213,198.880782296,-0.097615160,-0.003010895,0.002103008,0.524666857,0.851299713,-0.002919662,0.006740065,1.104645944,0.093543832,0.185584352,-0.013300123,-0.007500000,-0.017500000,-9.488250000,-0.060000000,-0.005000000,9.785000000,-1.625000000,-1.062500000,-2373.468749516
1780381487.087271214,8.623036385,-532.134056225,198.907410696,-0.099605511,-0.002996176,0.001893338,0.524665423,0.851301141,-0.003114627,0.006367625,1.104641926,0.164179818,0.325868282,-0.024971380,-0.005500000,-0.008750000,9.499500000,-0.030000000,-0.015000000,9.780000000,-0.020833333,0.791666667,1582.729166584
1780381487.187327147,8.723092318,-532.120641488,198.934044285,-0.101724082,-0.002982328,0.001701372,0.524663997,0.851302473,-0.003292495,0.006026242,1.104638096,0.213926164,0.424821353,-0.034447338,-0.005000000,-0.005750000,9.486750000,-0.055000000,-0.035000000,9.770000000,-0.354166667,-0.208333333,-0.437500000
1780381487.287445068,8.823210239,-532.106393768,198.962348186,-0.104098557,-0.002966692,0.001519429,0.524662495,0.851303798,-0.003456801,0.005700046,1.104634217,0.119367116,0.237209836,-0.020298109,0.010500000,-0.006250000,9.477250000,-0.035000000,-0.015000000,9.755000000,1.156250000,-0.187500000,2371.750000056
1780381487.387380838,8.923146009,-532.087128457,199.000650822,-0.107479209,-0.002940666,0.001313520,0.524660476,0.851305475,-0.003628566,0.005322141,1.104629216,0.205819230,0.409389771,-0.036830019,0.002750000,-0.008750000,9.483250000,-0.055000000,-0.025000000,9.740000000,1.218750000,-0.281250000,2371.656250056
1780381487.487349033,9.023114204,-532.074571829,199.025636310,-0.109766109,-0.002919961,0.001205536,0.524659174,0.851306508,-0.003706629,0.005116553,1.104626088,0.207313743,0.412594224,-0.038060421,-0.003000000,0.024000000,9.501250000,0.005000000,-0.065000000,9.795000000,-0.187500000,4.156249999,2373.312499516
1780381487.587327480,9.123092651,-532.062021390,199.050625861,-0.112100509,-0.002897004,0.001118420,0.524657894,0.851307495,-0.003758962,0.004944132,1.104623063,0.081238524,0.161777842,-0.015196492,-0.016000000,0.012000000,-9.503500000,-0.055000000,-0.040000000,9.760000000,-2.312500000,1.875000000,-1.270833333
1780381487.687373638,9.223138809,-532.043623245,199.087283053,-0.115578729,-0.002861722,0.001027628,0.524656060,0.851308859,-0.003794167,0.004752515,1.104618787,0.170134153,0.339083792,-0.032325747,0.017750000,-0.016750000,9.479500000,-0.050000000,-0.055000000,9.770000000,3.593749999,0.281250000,2370.906249517
1780381487.787381172,9.323146343,-532.028577693,199.117279777,-0.118442794,-0.002833107,0.000985628,0.524654607,0.851309900,-0.003789525,0.004650972,1.104615423,0.206999143,0.412763953,-0.039404758,0.010000000,0.008000000,-9.494500000,-0.060000000,0.005000000,9.800000000,0.979166667,0.333333333,1.270833333
1780381487.887362957,9.423128128,-532.011868382,199.150613860,-0.121609541,-0.002801564,0.000973671,0.524653033,0.851310988,-0.003748374,0.004597509,1.104611798,0.209479765,0.417984905,-0.039534793,-0.009000000,-0.000500000,-9.489750000,-0.030000000,-0.070000000,9.810000000,-0.750000000,-2.375000000,-2372.218750056
1780381487.987333775,9.523098946,-531.995168415,199.183952763,-0.124724357,-0.002768499,0.000999828,0.524651482,0.851312022,-0.003664638,0.004607341,1.104608246,0.214555394,0.428426267,-0.039672087,-0.007250000,-0.001250000,-9.490750000,-0.060000000,-0.040000000,9.795000000,-1.687500000,-1.531250000,-2374.125000056
1780381488.087442636,9.623207808,-531.979312992,199.215629516,-0.127602054,-0.002733981,0.001061202,0.524650004,0.851312970,-0.003541474,0.004675614,1.104604898,0.196403170,0.392491492,-0.035173415,0.019500000,-0.004250000,-9.488750000,-0.045000000,-0.015000000,9.820000000,2.562500000,1.812500000,-2370.250000056
1780381488.187328815,9.723093987,-531.961798472,199.250645753,-0.130652836,-0.002692137,0.001170252,0.524648333,0.851313990,-0.003355812,0.004817372,1.104601178,0.208075918,0.416097486,-0.035531541,0.008250000,0.007750000,9.490000000,-0.035000000,-0.030000000,9.810000000,1.343750000,1.312500000,2375.062500056
1780381488.287323952,9.823089123,-531.945126353,199.283999281,-0.133396166,-0.002650440,0.001312359,0.524646686,0.851314929,-0.003135713,0.005015571,1.104597610,0.210235523,0.420651006,-0.033753768,-0.003250000,0.005250000,-9.497250000,-0.050000000,0.015000000,9.840000000,0.041666667,0.291666667,0.416666667
1780381488.387286663,9.923051834,-531.928459972,199.317356878,-0.135947711,-0.002609251,0.001488835,0.524644963,0.851315828,-0.002880418,0.005272823,1.104594001,0.208951831,0.418256355,-0.031002664,0.013250000,0.002500000,-9.500000000,-0.080000000,-0.010000000,9.835000000,0.687500000,-0.562500000,-2373.156250056
1780381488.487322807,10.023087978,-531.915963005,199.342377803,-0.137716690,-0.002579415,0.001642077,0.524643605,0.851316474,-0.002668830,0.005502430,1.104591263,0.109019395,0.218299278,-0.015047972,-0.004750000,0.008750000,-9.490750000,-0.055000000,-0.000000000,9.835000000,-1.156250000,1.156250000,-2373.906250056
1780381488.587332249,10.123097420,-531.899302914,199.375742873,-0.139858894,-0.002540638,0.001872531,0.524641676,0.851317303,-0.002361004,0.005854119,1.104587540,0.141512375,0.283453436,-0.017365602,-0.008750000,-0.002500000,-9.495750000,-0.045000000,-0.040000000,9.810000000,-4.218750000,0.625000000,-2371.375000056
1780381488.687317848,10.223083019,-531.880146921,199.414119181,-0.141984441,-0.002495596,0.002172346,0.524639243,0.851318224,-0.001969738,0.006317333,1.104583120,0.206135739,0.413045517,-0.021264080,0.011000000,0.007250000,-9.486000000,-0.030000000,-0.055000000,9.825000000,-0.468750000,-0.687500000,-2372.687500056
1780381488.787323952,10.323089123,-531.861826131,199.450834484,-0.143647013,-0.002450636,0.002490918,0.524636653,0.851319078,-0.001558929,0.006812572,1.104578726,0.213796551,0.428475935,-0.017689098,-0.006000000,0.013000000,-9.497750000,-0.065000000,-0.000000000,9.855000000,-0.156250000,0.906250000,-2374.125000056
1780381488.887327433,10.423092604,-531.844337827,199.485887840,-0.144870662,-0.002406710,0.002819803,0.524633906,0.851319870,-0.001139062,0.007326458,1.104574354,0.205049920,0.410999575,-0.012706226,0.010750000,0.013250000,-9.506500000,-0.080000000,-0.065000000,9.890000000,0.531250000,0.375000000,-2374.375000056
1780381488.987478733,10.523243904,-531.828512980,199.517608628,-0.145655797,-0.002367907,0.003134049,0.524631178,0.851320561,-0.000743280,0.007820796,1.104570251,0.210748807,0.422410052,-0.008918755,0.003750000,0.009500000,-9.494500000,-0.080000000,0.000000000,9.870000000,0.750000000,0.500000000,-2373.093750056
1780381489.087365627,10.623130798,-531.812683889,199.549334662,-0.146123933,-0.002331537,0.003460303,0.524628212,0.851321226,-0.000339040,0.008338136,1.104565996,0.210163203,0.421217499,-0.004640383,-0.003000000,-0.002250000,-9.501000000,-0.050000000,-0.015000000,9.865000000,0.531250000,-1.343750000,-2375.406250056
1780381489.187339067,10.723104239,-531.795181749,199.584406370,-0.146263621,-0.002294741,0.003830996,0.524624647,0.851321935,0.000112548,0.008930696,1.104561098,0.208021925,0.416793458,0.000153022,0.012500000,0.001000000,-9.491250000,-0.115000000,0.005000000,9.865000000,0.375000000,0.354166667,0.083333333
1780381489.287505865,10.823271036,-531.778505989,199.617814668,-0.146022989,-0.002262385,0.004190607,0.524620971,0.851322593,0.000544947,0.009509049,1.104556237,0.199942669,0.400510700,0.004529228,0.004250000,0.013750000,-9.510500000,-0.095000000,0.005000000,9.845000000,1.031250000,-0.812500000,-2375.000000056
1780381489.387397289,10.923162460,-531.762657006,199.649559087,-0.145455806,-0.002233294,0.004535178,0.524617224,0.851323213,0.000956003,0.010065224,1.104551428,0.203874307,0.408320438,0.008854035,-0.004500000,0.006250000,-9.481500000,-0.110000000,0.025000000,9.835000000,-4.062499999,-0.093750000,-2370.281249517
1780381489.487333775,11.023098946,-531.746799751,199.681309905,-0.144561268,-0.002205755,0.004879263,0.524613237,0.851323839,0.001363906,0.010622201,1.104546414,0.142419835,0.285105456,0.009258117,0.001750000,0.006750000,9.490250000,-0.105000000,-0.000000000,9.855000000,-0.062500000,0.729166667,1581.625000157
1780381489.587447643,11.123212814,-531.730097947,199.714738977,-0.143272471,-0.002179325,0.005236677,0.524608809,0.851324512,0.001783901,0.011203045,1.104540918,0.209154917,0.418575010,0.017782309,0.013750000,-0.000750000,-9.489000000,-0.120000000,0.020000000,9.870000000,-0.437500000,0.875000000,-2374.312499516
1780381489.687335968,11.223101139,-531.711711916,199.751519141,-0.141456377,-0.002154923,0.005618592,0.524603711,0.851325281,0.002226146,0.011827736,1.104534604,0.209694817,0.419359772,0.022498303,-0.006500000,0.007250000,-9.488750000,-0.150000000,0.025000000,9.860000000,-1.250000000,-0.875000000,0.770833333
1780381489.787293911,11.323059082,-531.690798594,199.793324991,-0.138911012,-0.002134493,0.006031314,0.524597699,0.851326213,0.002693940,0.012509058,1.104527072,0.208730173,0.417105416,0.027358015,-0.002500000,0.014000000,-9.500500000,-0.135000000,0.005000000,9.840000000,-0.687500000,2.333333333,-1583.374999917
1780381489.887345314,11.423110485,-531.670701080,199.833469211,-0.136019499,-0.002121844,0.006400371,0.524591782,0.851327196,0.003102669,0.013124200,1.104519476,0.217134971,0.433569711,0.033000247,0.002250000,-0.005000000,9.491250000,-0.175000000,0.005000000,9.825000000,0.145833333,-0.833333333,0.520833333
1780381489.987373829,11.523139000,-531.649744339,199.875297432,-0.132585851,-0.002114794,0.006751206,0.524585546,0.851328347,0.003482736,0.013714197,1.104511172,0.209472191,0.417972906,0.035904625,-0.010250000,0.008000000,-9.505250000,-0.115000000,0.040000000,9.835000000,-4.218750000,1.062500000,-2375.156250056
1780381490.087281466,11.623046637,-531.629604023,199.915463040,-0.128934379,-0.002113976,0.007050615,0.524579571,0.851329604,0.003798230,0.014223172,1.104502810,0.208648811,0.415987678,0.039108793,0.014000000,0.002000000,-9.485500000,-0.145000000,-0.005000000,9.835000000,3.312500000,-0.437500000,-2373.718750056
1780381490.187313795,11.723078966,-531.612803384,199.948941809,-0.125665035,-0.002118784,0.007268275,0.524574670,0.851330781,0.004018373,0.014598852,1.104495550,0.211776559,0.421909105,0.042068833,-0.000500000,0.004750000,-9.494000000,-0.150000000,0.050000000,9.865000000,0.125000000,0.125000000,-2372.250000056
1780381490.287369251,11.823134422,-531.591780075,199.990799129,-0.121343869,-0.002133202,0.007495137,0.524568730,0.851332438,0.004231790,0.015000292,1.104486104,0.209342859,0.416652453,0.043898197,-0.005500000,0.014750000,9.480250000,-0.170000000,0.055000000,9.835000000,-1.093750000,1.062500000,2373.281250056
1780381490.387360811,11.923125982,-531.577469511,200.019267283,-0.118290093,-0.002148519,0.007618789,0.524564847,0.851333694,0.004335401,0.015226928,1.104479443,0.216638449,0.430846562,0.046624417,-0.011250000,0.016250000,-9.493250000,-0.150000000,0.040000000,9.795000000,-2.625000000,0.718750000,-2372.750000056
1780381490.487437963,12.023203135,-531.561462202,200.051089777,-0.114799471,-0.002170441,0.007726517,0.524560691,0.851335229,0.004411048,0.015433382,1.104471787,0.184993856,0.367660189,0.040614390,0.011500000,0.007750000,-9.492750000,-0.180000000,0.040000000,9.815000000,1.562500000,1.312500000,-2372.531250056
1780381490.587555170,12.123320341,-531.543753620,200.086267834,-0.110885220,-0.002199862,0.007807305,0.524556342,0.851337096,0.004445650,0.015601833,1.104463064,0.209888733,0.416809294,0.046526397,0.022250000,-0.003000000,-9.482000000,-0.145000000,0.130000000,9.830000000,1.395833333,-0.354166667,1.250000000
1780381490.687400818,12.223165989,-531.526873365,200.119776387,-0.107143437,-0.002232568,0.007846164,0.524552464,0.851339043,0.004430665,0.015702336,1.104454524,0.212037394,0.420778688,0.046934689,-0.003250000,0.003500000,-9.483750000,-0.145000000,0.085000000,9.825000000,-0.406250000,1.125000000,-2372.406250056
1780381490.787289858,12.323055029,-531.509978666,200.153289878,-0.103429099,-0.002270046,0.007847231,0.524548861,0.851341154,0.004367899,0.015743492,1.104445771,0.212921528,0.422233487,0.046553533,-0.014500000,0.003250000,-9.489000000,-0.195000000,0.040000000,9.785000000,-1.062500000,2.156250000,-2372.718750056
1780381490.887318850,12.423084021,-531.497298465,200.178427956,-0.100685647,-0.002301542,0.007823009,0.524546348,0.851342841,0.004288802,0.015735306,1.104439082,0.095464831,0.189228241,0.020531368,0.009000000,-0.005750000,-9.485750000,-0.170000000,0.080000000,9.805000000,-0.375000000,-2.031250000,-2372.468750056
1780381490.987492323,12.523257494,-531.480379251,200.211948674,-0.097116225,-0.002348229,0.007757479,0.524543249,0.851345222,0.004140481,0.015672723,1.104430011,0.210519049,0.416997171,0.043837139,-0.017500000,0.001250000,-9.489500000,-0.185000000,0.040000000,9.810000000,-2.875000000,1.218750000,-2370.437500056
1780381491.087371111,12.623136282,-531.459211894,200.253854303,-0.092851827,-0.002413641,0.007623437,0.524539769,0.851348394,0.003888371,0.015513126,1.104418471,0.212140656,0.419834074,0.041682310,-0.000750000,-0.004250000,-9.505500000,-0.160000000,0.070000000,9.770000000,1.291666667,-0.229166667,-1.854166667
1780381491.187380552,12.723145723,-531.442265013,200.287382277,-0.089644414,-0.002470694,0.007476375,0.524537278,0.851351070,0.003636854,0.015322581,1.104409124,0.215682176,0.426600115,0.039826950,0.000250000,-0.001250000,-9.473000000,-0.180000000,0.020000000,9.755000000,-0.906250000,0.281250000,-2368.625000056
1780381491.287307262,12.823072433,-531.429548163,200.312530080,-0.087381661,-0.002515732,0.007344082,0.524535564,0.851353145,0.003421311,0.015144576,1.104402073,0.219957534,0.434928271,0.038371054,-0.003250000,0.007000000,-9.488000000,-0.180000000,0.070000000,9.780000000,-1.093750000,0.937500000,-2372.250000056
1780381491.387289524,12.923054695,-531.412583907,200.346062320,-0.084582374,-0.002578441,0.007139954,0.524533462,0.851355989,0.003100294,0.014862791,1.104392642,0.033646189,0.066507249,0.005299979,0.006500000,-0.012250000,-9.487750000,-0.155000000,0.005000000,9.745000000,1.906250000,-1.968750000,-2372.156250056
1780381491.487458467,13.023223639,-531.395611126,200.379596260,-0.082060944,-0.002644065,0.006906026,0.524531545,0.851358899,0.002743054,0.014533317,1.104383218,0.210984628,0.416804962,0.029962466,-0.007500000,-0.013000000,-9.487000000,-0.185000000,0.015000000,9.730000000,1.187500000,-1.781250000,-2371.375000056
1780381491.587426901,13.123192072,-531.374384577,200.421515127,-0.079343816,-0.002730037,0.006575253,0.524529364,0.851362590,0.002249549,0.014060282,1.104371513,0.212126214,0.418821044,0.025106810,0.010750000,0.007250000,-9.493500000,-0.135000000,0.020000000,9.750000000,1.375000000,2.125000000,-2373.437500056
1780381491.687271595,13.223036766,-531.359095710,200.451697327,-0.077712503,-0.002794216,0.006313545,0.524527910,0.851365258,0.001865641,0.013681982,1.104363186,0.143699919,0.283629452,0.014215823,-0.010500000,-0.019250000,-9.502250000,-0.165000000,-0.000000000,9.725000000,0.437500000,-3.437500000,-2375.000000056
1780381491.787302017,13.323067188,-531.344653036,200.480202968,-0.076438145,-0.002855978,0.006050717,0.524526602,0.851367768,0.001484681,0.013299235,1.104355437,0.220835299,0.435851163,0.018050348,0.001250000,0.004750000,9.495500000,-0.155000000,0.010000000,9.750000000,0.770833333,1.833333334,1582.229166824
1780381491.887280226,13.423045397,-531.327658768,200.513738833,-0.075285790,-0.002929248,0.005725096,0.524525113,0.851370688,0.001018246,0.012821637,1.104346493,0.103853465,0.204940505,0.006163059,-0.004000000,-0.001750000,9.489250000,-0.120000000,0.055000000,9.720000000,-0.541666667,0.604166667,1582.229166824
1780381491.987324238,13.523089409,-531.310663188,200.547274253,-0.074522528,-0.003002373,0.005385275,0.524523652,0.851373551,0.000537167,0.012319704,1.104337782,0.211230096,0.416808889,0.007639841,-0.009000000,-0.013000000,-9.495500000,-0.170000000,-0.010000000,9.785000000,0.375000000,-0.906250000,-2371.031249517
1780381492.087270260,13.623035431,-531.289419099,200.589192148,-0.074131818,-0.003092783,0.004946156,0.524521828,0.851377015,-0.000077520,0.011666817,1.104327280,0.212471733,0.419233365,0.001372242,-0.006500000,-0.011250000,-9.511250000,-0.150000000,0.020000000,9.740000000,-1.500000000,0.562500000,-2.187500000
1780381492.187375784,13.723140955,-531.272426211,200.622724911,-0.074277451,-0.003163906,0.004587893,0.524520354,0.851379668,-0.000574519,0.011131374,1.104319242,0.210351346,0.415095161,-0.003702625,-0.009000000,-0.014750000,-9.505250000,-0.120000000,-0.030000000,9.745000000,-0.375000000,-1.281250000,-2374.281250056
1780381492.287360191,13.823125362,-531.255437027,200.656255791,-0.074832097,-0.003233501,0.004227561,0.524518854,0.851382196,-0.001071079,0.010590803,1.104311562,0.208603458,0.411726124,-0.008689646,0.015750000,0.002000000,-9.497750000,-0.140000000,-0.005000000,9.735000000,0.937500000,1.093750000,-2373.562500056
1780381492.387317896,13.923083067,-531.238453264,200.689784501,-0.075792732,-0.003300860,0.003869149,0.524517323,0.851384585,-0.001561811,0.010051153,1.104304272,0.218682620,0.431745423,-0.014313985,-0.012000000,-0.007250000,-9.495250000,-0.110000000,-0.005000000,9.780000000,0.062500000,0.812500000,1.000000000
1780381492.487393379,14.023158550,-531.221476715,200.723310851,-0.077151997,-0.003365086,0.003516721,0.524515760,0.851386825,-0.002040923,0.009518404,1.104297396,0.062593169,0.123636114,-0.005663296,-0.001000000,-0.010750000,-9.478750000,-0.080000000,-0.040000000,9.700000000,1.125000000,-1.781250000,-2373.281250056
1780381492.587357998,14.123123169,-531.204509104,200.756834683,-0.078898255,-0.003425322,0.003174240,0.524514169,0.851388911,-0.002502799,0.008998407,1.104290951,0.133467984,0.263737429,-0.014855361,0.000250000,-0.016000000,-9.504000000,-0.080000000,-0.040000000,9.695000000,0.000000000,-1.916666667,-1.500000000
1780381492.687296867,14.223062038,-531.187551963,200.790355825,-0.081015697,-0.003480940,0.002845425,0.524512561,0.851390839,-0.002942469,0.008496833,1.104284950,0.210833751,0.416850846,-0.028012812,-0.012500000,-0.009250000,-9.486250000,-0.040000000,0.010000000,9.795000000,-0.416666667,1.000000000,-0.479166667
1780381492.787335873,14.323101044,-531.170606626,200.823874091,-0.083484495,-0.003531540,0.002533721,0.524510952,0.851392606,-0.003355639,0.008019131,1.104279401,0.214699234,0.424763647,-0.032894882,0.000000000,-0.012500000,-9.492750000,-0.050000000,-0.050000000,9.745000000,0.625000000,-0.645833333,-0.250000000
1780381492.887315035,14.423080206,-531.149443233,200.865767578,-0.087028237,-0.003587216,0.002173082,0.524508964,0.851394595,-0.003828787,0.007463423,1.104273099,0.210624683,0.417073149,-0.037197104,-0.004750000,-0.018000000,9.501750000,-0.065000000,-0.060000000,9.760000000,-1.406250000,-2.656250000,2373.750000056
1780381492.987296104,14.523061275,-531.131683640,200.900954524,-0.090361294,-0.003626855,0.001899162,0.524507345,0.851396080,-0.004183647,0.007038561,1.104268348,0.215085583,0.426299902,-0.041778734,-0.009500000,-0.007750000,9.486250000,-0.070000000,-0.085000000,9.750000000,-0.843750000,-2.843750000,2370.250000056
1780381493.087395191,14.623160362,-531.119008404,200.926085865,-0.092919989,-0.003650785,0.001721745,0.524506224,0.851397045,-0.004410519,0.006761548,1.104265239,0.208583630,0.413636970,-0.042875594,-0.006750000,0.009000000,9.480500000,-0.025000000,-0.045000000,9.775000000,-0.406250000,1.093750000,2369.843750056
1780381493.187327147,14.723092318,-531.099591372,200.964617580,-0.097094767,-0.003679735,0.001482103,0.524504589,0.851398378,-0.004711214,0.006383839,1.104260929,0.178845437,0.355056105,-0.039526997,0.001750000,-0.013500000,-9.500500000,-0.100000000,-0.030000000,9.770000000,0.270833333,-1.812500000,-1582.354166824
1780381493.287311316,14.823076487,-531.082725188,200.998120310,-0.100934418,-0.003696871,0.001307949,0.524503259,0.851399409,-0.004923092,0.006105253,1.104257593,0.210935218,0.419127368,-0.048837576,0.000500000,-0.013000000,-9.496750000,-0.080000000,-0.035000000,9.815000000,0.666666667,-0.604166667,-1582.645833251
1780381493.387312889,14.923078060,-531.065876435,201.031620338,-0.104928204,-0.003706320,0.001167552,0.524502026,0.851400332,-0.005086468,0.005876087,1.104254610,0.205314793,0.408351138,-0.049282005,0.012250000,0.007250000,9.497500000,-0.060000000,-0.060000000,9.780000000,1.093750000,2.187500000,2372.843750056
1780381493.487273932,15.023039103,-531.049886509,201.063443071,-0.108828092,-0.003708121,0.001066710,0.524500951,0.851401118,-0.005195325,0.005706253,1.104252076,0.132752655,0.264320540,-0.032674792,-0.014250000,0.002000000,9.492750000,-0.045000000,-0.080000000,9.785000000,-1.375000000,2.312500000,2373.500000056
1780381493.587300777,15.123065948,-531.032231394,201.098612925,-0.113214342,-0.003701924,0.000993214,0.524499868,0.851401902,-0.005261875,0.005574595,1.104249565,0.212729436,0.423915541,-0.053110463,-0.011250000,-0.012500000,9.488500000,-0.025000000,-0.080000000,9.780000000,-0.468750000,-0.687500000,2374.968750056
1780381493.687335491,15.223100662,-531.016274342,201.130431450,-0.117211397,-0.003688761,0.000961756,0.524498980,0.851402542,-0.005272466,0.005507213,1.104247529,0.169718642,0.338545588,-0.042545697,0.012500000,0.007250000,-9.501250000,-0.015000000,-0.050000000,9.775000000,1.062500000,1.833333333,-1.583333333
1780381493.787318230,15.323083401,-531.003687101,201.155550070,-0.120360768,-0.003673214,0.000960664,0.524498328,0.851403012,-0.005247140,0.005489040,1.104246044,0.204567519,0.408348841,-0.051105040,0.010500000,-0.005250000,-9.492750000,-0.065000000,-0.070000000,9.805000000,1.718750000,1.468750000,-2374.250000056
1780381493.887345076,15.423110247,-530.982729003,201.197412881,-0.125544174,-0.003637077,0.001005406,0.524497322,0.851403735,-0.005138677,0.005527315,1.104243770,0.209342041,0.418354823,-0.051315692,0.003000000,-0.000250000,-9.500250000,-0.045000000,-0.030000000,9.775000000,0.250000000,0.395833333,-0.500000000
1780381493.987303972,15.523069143,-530.968490890,201.225878489,-0.128985563,-0.003605310,0.001068675,0.524496667,0.851404196,-0.005018219,0.005601724,1.104242319,0.129319722,0.258643669,-0.030941610,0.013000000,0.014750000,-9.501500000,-0.070000000,-0.055000000,9.810000000,2.250000000,2.718750000,-2374.656250056
1780381494.087335110,15.623100281,-530.954263016,201.254343546,-0.132329419,-0.003567910,0.001157901,0.524496017,0.851404638,-0.004860941,0.005714424,1.104240915,0.132555798,0.265254186,-0.030726833,-0.005250000,-0.006500000,-9.488000000,-0.045000000,-0.055000000,9.825000000,-0.281250000,-3.562500000,-2371.343750056
1780381494.187347651,15.723112822,-530.936700670,201.289505991,-0.136287826,-0.003514266,0.001302775,0.524495190,0.851405161,-0.004617628,0.005904845,1.104239213,0.215170116,0.430942345,-0.047510694,0.016250000,0.008750000,-9.499000000,-0.075000000,-0.045000000,9.815000000,2.125000000,-0.406250000,-2374.281250056
1780381494.287386656,15.823151827,-530.919986292,201.322993848,-0.139841574,-0.003455907,0.001474765,0.524494335,0.851405646,-0.004337841,0.006136493,1.104237571,0.093228954,0.186823327,-0.019268674,-0.001500000,0.024000000,9.493250000,-0.045000000,-0.035000000,9.815000000,-0.208333333,0.895833333,1582.979166824
1780381494.387346983,15.923112154,-530.899942058,201.363179690,-0.143774218,-0.003376992,0.001722243,0.524493164,0.851406220,-0.003943866,0.006475121,1.104235517,0.206221517,0.413571697,-0.038861558,0.010750000,-0.004000000,-9.489500000,-0.045000000,-0.025000000,9.825000000,0.604166667,-1.145833333,-0.833333333
1780381494.487391710,16.023156881,-530.888255101,201.386621890,-0.145878606,-0.003326713,0.001885892,0.524492380,0.851406554,-0.003686589,0.006701043,1.104234249,0.210171334,0.421594989,-0.036986919,0.004250000,-0.005250000,9.472000000,-0.070000000,-0.010000000,9.860000000,-0.395833333,-0.958333333,1579.145833490
1780381494.587275267,16.123040438,-530.876571475,201.410064586,-0.147829485,-0.003273497,0.002062690,0.524491505,0.851406889,-0.003410518,0.006946275,1.104232913,0.210106536,0.421627839,-0.034166225,0.001750000,0.004250000,9.494000000,-0.050000000,-0.040000000,9.835000000,-0.375000000,0.437500000,0.291666667
1780381494.687354326,16.223119497,-530.864056128,201.435182359,-0.149737752,-0.003213451,0.002265617,0.524490448,0.851407253,-0.003095408,0.007228836,1.104231390,0.019280250,0.038690348,-0.002798885,0.000750000,-0.007750000,9.490750000,-0.045000000,-0.075000000,9.895000000,0.500000000,0.375000000,2373.125000056
1780381494.787313223,16.323078394,-530.844036291,201.475372698,-0.152371614,-0.003111561,0.002616209,0.524488470,0.851407845,-0.002554151,0.007718954,1.104228731,0.142259187,0.285619165,-0.017127662,-0.000750000,0.002000000,-9.500250000,-0.080000000,-0.050000000,9.885000000,0.312500000,-1.395833333,-1582.562499917
1780381494.887289286,16.423054457,-530.834861756,201.493794189,-0.153396669,-0.003062771,0.002786250,0.524487433,0.851408121,-0.002292704,0.007957326,1.104227410,0.206717700,0.415046607,-0.022371353,-0.011000000,0.009500000,9.498500000,-0.140000000,-0.040000000,9.835000000,-2.656250000,1.281250000,2374.500000056
1780381494.987332106,16.523097277,-530.822351277,201.518915332,-0.154601480,-0.002994437,0.003026215,0.524485873,0.851408506,-0.001924632,0.008294266,1.104225490,0.021828320,0.043841978,-0.001917660,-0.002000000,0.009750000,-9.502500000,-0.080000000,-0.045000000,9.855000000,-1.437500000,1.562500000,-2372.312500056
1780381495.087413788,16.623178959,-530.803167198,201.557436586,-0.156000994,-0.002886283,0.003409148,0.524483132,0.851409121,-0.001338788,0.008832887,1.104222248,0.147474011,0.296097892,-0.008907239,0.015250000,0.003250000,-9.494500000,-0.070000000,-0.015000000,9.875000000,1.687500000,-1.031250000,-2373.531250056
1780381495.187335253,16.723100424,-530.788985832,201.585910990,-0.156676255,-0.002804254,0.003701053,0.524480829,0.851409595,-0.000892912,0.009243910,1.104219614,0.204388279,0.410383414,-0.008155244,0.014250000,0.010750000,-9.489250000,-0.100000000,-0.005000000,9.860000000,0.531250000,3.062500000,-2371.781250056
1780381495.287380695,16.823145866,-530.772297832,201.619412602,-0.157070867,-0.002706162,0.004050703,0.524477806,0.851410183,-0.000359117,0.009736418,1.104216229,0.208782661,0.419121910,-0.002892315,-0.004500000,0.014500000,-9.490000000,-0.110000000,0.035000000,9.820000000,0.750000000,0.843750000,-2372.781250056
1780381495.387357473,16.923122644,-530.759778014,201.644540531,-0.157080037,-0.002631924,0.004315215,0.524475317,0.851410649,0.000044754,0.010108971,1.104213476,0.044014381,0.088331884,0.000343491,-0.002250000,0.017250000,9.487500000,-0.115000000,-0.010000000,9.855000000,-1.250000000,1.687500000,2372.375000056
1780381495.487367630,17.023132801,-530.740573300,201.683073168,-0.156615287,-0.002517901,0.004720545,0.524471144,0.851411414,0.000664078,0.010679587,1.104208888,0.155154140,0.311249302,0.005683240,-0.004750000,0.005250000,9.497500000,-0.130000000,-0.020000000,9.840000000,-1.375000000,-0.229166667,1.020833333
1780381495.587389708,17.123154879,-530.730549165,201.703178711,-0.156143876,-0.002458723,0.004930217,0.524468805,0.851411840,0.000984778,0.010974558,1.104206315,0.210426765,0.422002347,0.010849855,-0.000500000,0.032250000,-9.464000000,-0.135000000,0.040000000,9.870000000,-0.729166667,2.250000000,-1579.562500157
1780381495.687287331,17.223052502,-530.718014369,201.728312194,-0.155336516,-0.002385441,0.005188968,0.524465734,0.851412402,0.001380973,0.011338310,1.104202922,0.063169301,0.126649235,0.004552568,0.022250000,0.002250000,9.480750000,-0.110000000,0.000000000,9.855000000,2.687500000,-1.687500000,2372.625000056
1780381495.787354946,17.323120117,-530.698782839,201.766853338,-0.153637336,-0.002275377,0.005575140,0.524460738,0.851413340,0.001973452,0.011880469,1.104197324,0.148426200,0.297389665,0.014949962,0.005000000,0.001250000,9.489750000,-0.100000000,0.000000000,9.865000000,-0.937500000,-4.125000000,2373.500000056
1780381495.887350321,17.423115492,-530.680372757,201.803722121,-0.151507245,-0.002173740,0.005928136,0.524455677,0.851414338,0.002516779,0.012374976,1.104191508,0.208506348,0.417439198,0.026215210,0.005250000,0.001000000,9.490250000,-0.120000000,-0.055000000,9.870000000,-1.031250000,-3.187500000,2371.875000056
1780381495.987276793,17.523041964,-530.667812197,201.828862081,-0.149784556,-0.002107012,0.006157283,0.524452103,0.851415081,0.002870751,0.012695202,1.104187293,0.211404564,0.423027372,0.030181349,-0.003000000,-0.004000000,-9.484000000,-0.185000000,0.095000000,9.895000000,-1.062500000,-0.208333333,-0.687500000
1780381496.087323666,17.623088837,-530.655244288,201.854003589,-0.147853390,-0.002042765,0.006375495,0.524448452,0.851415880,0.003209028,0.012999412,1.104182872,0.069547941,0.139106181,0.011132340,0.005750000,0.010000000,-9.476000000,-0.115000000,0.070000000,9.880000000,0.687500000,-1.312500000,-2372.000000056
1780381496.187383413,17.723148584,-530.638474954,201.887527796,-0.144972768,-0.001961558,0.006647196,0.524443498,0.851417045,0.003632282,0.013376924,1.104176650,0.208949321,0.417620175,0.037451296,0.024750000,0.004000000,-9.502750000,-0.160000000,0.070000000,9.840000000,1.187500000,0.000000000,-2376.687500056
1780381496.287364483,17.823129654,-530.617493230,201.929436416,-0.140921146,-0.001868342,0.006951880,0.524437244,0.851418674,0.004110570,0.013798015,1.104168357,0.211013285,0.421292555,0.042612285,0.014500000,0.018250000,-9.488750000,-0.125000000,0.050000000,9.820000000,1.468750000,1.875000000,-2371.468750056
1780381496.387273788,17.923038960,-530.602372417,201.959612830,-0.137726329,-0.001807700,0.007144600,0.524432756,0.851419973,0.004415952,0.014062607,1.104162043,0.146925224,0.293104130,0.031896809,0.012250000,0.014750000,-9.492000000,-0.150000000,0.070000000,9.865000000,1.656250000,-0.781250000,-2375.093750056
1780381496.487319469,18.023084641,-530.588080807,201.988114333,-0.134521599,-0.001755905,0.007304452,0.524428568,0.851421305,0.004671790,0.014280510,1.104155821,0.218069222,0.434798018,0.049796330,0.008000000,0.003000000,9.499500000,-0.145000000,0.060000000,9.830000000,1.062500000,-0.937500000,1583.604166824
1780381496.587418795,18.123183966,-530.575461347,202.013263635,-0.131561458,-0.001714930,0.007426652,0.524424934,0.851422570,0.004869710,0.014445644,1.104150122,0.211847966,0.422129879,0.050324341,-0.004750000,0.015000000,-9.514750000,-0.180000000,0.090000000,9.825000000,-0.750000000,1.281250000,-2374.093749516
1780381496.687435627,18.223200798,-530.556095391,202.051827611,-0.126821032,-0.001661210,0.007578126,0.524419524,0.851424674,0.005120015,0.014647272,1.104141026,0.208656270,0.415331616,0.051956609,-0.006500000,-0.016750000,-9.473250000,-0.165000000,0.120000000,9.815000000,-0.812500000,-2.718750000,-2371.281250056
1780381496.787369251,18.323134422,-530.541769193,202.080332626,-0.123192579,-0.001628956,0.007661161,0.524415683,0.851426359,0.005261991,0.014754863,1.104134039,0.212058477,0.421843762,0.054156783,0.007250000,-0.004250000,9.478500000,-0.130000000,0.120000000,9.815000000,0.968750000,-0.312500000,2371.843750056
1780381496.887358665,18.423123837,-530.524901252,202.113868707,-0.118827624,-0.001599547,0.007726482,0.524411362,0.851428486,0.005380529,0.014835279,1.104125541,0.216324290,0.429972846,0.056351437,-0.007500000,-0.005750000,9.489750000,-0.145000000,0.075000000,9.790000000,0.625000000,1.062500000,2372.750000056
1780381496.987280607,18.523045778,-530.511396660,202.140698025,-0.115288596,-0.001582910,0.007753166,0.524408077,0.851430297,0.005436798,0.014863289,1.104118541,0.170843482,0.339328281,0.044887133,-0.009250000,-0.000250000,9.478250000,-0.135000000,0.075000000,9.830000000,-1.125000000,-1.843750000,2371.281250056
1780381497.087323904,18.623089075,-530.492813393,202.177588636,-0.110398916,-0.001570354,0.007752495,0.524403829,0.851432943,0.005457403,0.014849005,1.104108646,0.210801359,0.418310793,0.055434933,-0.013250000,-0.017750000,9.499750000,-0.135000000,0.080000000,9.790000000,-2.125000000,-2.656250000,2373.000000056
1780381497.187288523,18.723053694,-530.478442362,202.206094904,-0.106635735,-0.001569002,0.007722450,0.524400767,0.851435105,0.005428133,0.014796442,1.104100803,0.209492827,0.415437731,0.054681444,-0.014500000,-0.001500000,-9.479000000,-0.175000000,0.050000000,9.740000000,0.000000000,-1.312500000,-1581.083333251
1780381497.287326336,18.823091507,-530.461523646,202.239631423,-0.102265809,-0.001576810,0.007654630,0.524397413,0.851437769,0.005343627,0.014689160,1.104091385,0.216265433,0.428543926,0.055431951,0.006750000,0.004750000,9.493000000,-0.140000000,0.015000000,9.790000000,1.500000000,0.875000000,2372.500000056
1780381497.387347221,18.923112392,-530.444592840,202.273167217,-0.097999467,-0.001594787,0.007552555,0.524394321,0.851440551,0.005205874,0.014534211,1.104081788,0.049243300,0.097483229,0.012220571,-0.005250000,-0.016000000,9.492500000,-0.155000000,0.025000000,9.795000000,-1.593750000,-2.656250000,2372.093750056
1780381497.487329483,19.023094654,-530.427650719,202.306701930,-0.093879455,-0.001622869,0.007417469,0.524391480,0.851443435,0.005016290,0.014333639,1.104072043,0.084163798,0.166501694,0.020071301,0.003250000,-0.001250000,9.494500000,-0.145000000,0.040000000,9.740000000,-0.031250000,-0.218750000,2371.687500056
1780381497.587273359,19.123038530,-530.414937363,202.331852120,-0.090910360,-0.001650483,0.007295424,0.524389503,0.851445654,0.004841199,0.014154779,1.104064661,0.132450934,0.261962487,0.030527421,-0.003000000,0.004500000,-9.491750000,-0.125000000,0.085000000,9.775000000,0.041666667,1.312500000,0.187500000
1780381497.687300205,19.223065376,-530.397977502,202.365384084,-0.087144559,-0.001695907,0.007106526,0.524387051,0.851448673,0.004565642,0.013880753,1.104054743,0.219082993,0.433038944,0.047472986,0.005250000,-0.007750000,-9.485000000,-0.145000000,0.085000000,9.785000000,0.375000000,1.000000000,1.062500000
1780381497.787362576,19.323127747,-530.381008808,202.398914009,-0.083633688,-0.001750904,0.006889681,0.524384784,0.851451740,0.004244470,0.013569174,1.104044776,0.083056004,0.164077074,0.016569471,-0.005000000,0.000500000,-9.488250000,-0.155000000,0.030000000,9.740000000,-1.906250000,-0.468750000,-2371.375000056
1780381497.887275219,19.423040390,-530.363183179,202.434117815,-0.080259936,-0.001818542,0.006634567,0.524382570,0.851454987,0.003861635,0.013205677,1.104034300,0.166134629,0.328034172,0.030145520,-0.018250000,0.001750000,-9.490250000,-0.140000000,0.070000000,9.765000000,-1.750000000,0.541666667,1.166666667
1780381497.987274408,19.523039579,-530.344501461,202.470995100,-0.077108690,-0.001899629,0.006340552,0.524380398,0.851458388,0.003415098,0.012790037,1.104023375,0.210623967,0.415702643,0.033717399,-0.006000000,0.007250000,-9.502000000,-0.155000000,0.075000000,9.755000000,0.291666667,2.062500000,-0.541666667
1780381498.087316990,19.623082161,-530.329211087,202.501164515,-0.074848186,-0.001973254,0.006082319,0.524378696,0.851461153,0.003018816,0.012427501,1.104014496,0.137237437,0.270732822,0.019168000,-0.000750000,-0.014250000,-9.478750000,-0.125000000,0.010000000,9.750000000,-0.031250000,-1.125000000,-2369.593750056
1780381498.187519312,19.723284483,-530.312218340,202.534683276,-0.072695676,-0.002062110,0.005779745,0.524376863,0.851464179,0.002550090,0.012005426,1.104004750,0.210796829,0.415739275,0.024883386,-0.010000000,0.020750000,-9.473750000,-0.125000000,0.025000000,9.750000000,0.812500000,3.593750000,-2372.781250056
1780381498.287417889,19.823183060,-530.294373235,202.569874452,-0.070864759,-0.002162681,0.005447805,0.524374973,0.851467282,0.002030618,0.011545624,1.103994692,0.148294472,0.292388328,0.013601995,-0.006500000,0.005750000,-9.506000000,-0.120000000,0.090000000,9.715000000,0.750000000,1.437500000,-0.937500000
1780381498.387300730,19.923065901,-530.276526768,202.605061739,-0.069492962,-0.002269864,0.005105180,0.524373091,0.851470285,0.001488686,0.011074557,1.103984859,0.214597668,0.423108374,0.014348689,-0.011250000,0.009500000,9.490000000,-0.095000000,-0.030000000,9.745000000,0.750000000,2.562500000,2371.718750056
1780381498.487306356,20.023071527,-530.258680297,202.640244833,-0.068594971,-0.002382728,0.004755948,0.524371194,0.851473167,0.000930160,0.010598191,1.103975290,0.216342241,0.426481746,0.008667737,-0.007250000,0.001500000,9.499250000,-0.105000000,-0.005000000,9.750000000,1.625000000,1.843750000,2373.062500056
