sim_time_sec,elapsed_time_sec,global_x,global_y,global_z,global_qx,global_qy,global_qz,global_qw,roll,pitch,yaw,global_vx,global_vy,global_vz,imu_angular_velocity_x,imu_angular_velocity_y,imu_angular_velocity_z,imu_linear_acceleration_x,imu_linear_acceleration_y,imu_linear_acceleration_z,imu_angular_acceleration_x,imu_angular_acceleration_y,imu_angular_acceleration_z
1780379799.821526527,0.523518085,-546.978540823,167.204008703,-0.072516209,-0.001815000,0.006896234,0.482683755,0.875765688,0.003478711,0.013831553,1.007485085,0.002847624,0.003866353,0.009805067,-0.020500000,0.005250000,9.492750000,0.090000000,-0.010000000,9.740000000,-0.312500000,-0.500000000,2374.812500056
1780379799.921506882,0.623498440,-546.978233010,167.204441646,-0.071587384,-0.001827172,0.006721203,0.482685344,0.875766148,0.003288409,0.013536717,1.007485623,0.015930364,0.022406292,0.048069853,-0.004750000,-0.014750000,9.507000000,0.135000000,-0.015000000,9.690000000,1.656250000,-0.218750000,2375.625000056
1780379800.021511316,0.723502874,-546.977869419,167.204972790,-0.070687367,-0.001827152,0.006543415,0.482686846,0.875766666,0.003116800,0.013225280,1.007486107,0.003408086,0.004978620,0.008436219,0.005500000,-0.008250000,9.486000000,0.190000000,-0.015000000,9.690000000,1.437500000,1.656250000,2376.218750056
1780379800.121515512,0.823507071,-546.970339147,167.216810063,-0.062889582,-0.001440364,0.004700965,0.482697714,0.875773226,0.002015520,0.009624627,1.007487900,0.048597108,0.076405755,0.027268169,0.002250000,-0.019000000,9.495500000,0.170000000,-0.035000000,9.705000000,-0.250000000,0.562500000,0.312500000
1780379800.221466303,0.923457861,-546.965999121,167.223551145,-0.061162298,-0.001470208,0.004126991,0.482700508,0.875774529,0.001409112,0.008648075,1.007487927,0.056626472,0.087422334,0.017911081,-0.008250000,-0.004250000,9.499250000,0.160000000,0.025000000,9.695000000,0.583333333,0.375000000,0.687500000
1780379800.321432829,1.023424387,-546.960830929,167.231479836,-0.060137625,-0.001677949,0.003608088,0.482703245,0.875774939,0.000544277,0.007939733,1.007488395,0.070369002,0.107789638,0.009665299,-0.019500000,0.000500000,-9.497750000,0.190000000,0.020000000,9.660000000,-0.250000000,-0.250000000,-2374.343750056
1780379800.421475887,1.123467445,-546.953302811,167.243063554,-0.059881742,-0.002025202,0.003057421,0.482706161,0.875774693,-0.000595585,0.007310445,1.007489403,0.081022861,0.125335570,-0.001917816,-0.004000000,0.017000000,-9.508250000,0.185000000,-0.015000000,9.660000000,-0.593750000,2.187500000,-2376.937500056
1780379800.521472692,1.223464251,-546.946498615,167.253683603,-0.060439734,-0.002221110,0.002692236,0.482707749,0.875774542,-0.001291288,0.006859932,1.007490077,0.053130637,0.083366745,-0.005942253,0.011000000,0.001500000,9.491250000,0.130000000,-0.090000000,9.710000000,2.083333333,0.145833333,1583.020833251
1780379800.621563196,1.323554754,-546.937447010,167.267986431,-0.061850276,-0.002298380,0.002280646,0.482708937,0.875774856,-0.001823987,0.006213603,1.007490618,0.093190092,0.147693051,-0.016781429,-0.013250000,-0.002500000,-9.513000000,0.150000000,-0.020000000,9.750000000,-0.156250000,1.156250000,-2376.812500056
1780379800.721504211,1.423495770,-546.927844501,167.283196932,-0.063812931,-0.002299130,0.001822942,0.482709983,0.875775350,-0.002267173,0.005412628,1.007491504,0.111052479,0.175674923,-0.024231555,0.011500000,-0.007000000,9.502750000,0.145000000,-0.040000000,9.770000000,0.687500000,2.781250000,2374.062500056
1780379800.821600437,1.523591995,-546.917331305,167.299761179,-0.066310001,-0.002345612,0.001260872,0.482711438,0.875775414,-0.002891218,0.004473004,1.007493660,0.117755152,0.185086560,-0.029378277,-0.010500000,-0.008500000,-9.500250000,0.135000000,-0.015000000,9.760000000,-1.854166667,-1.187500000,-1583.770833491
1780379800.921453714,1.623445272,-546.904952759,167.319190939,-0.069671929,-0.002470907,0.000601850,0.482713356,0.875774713,-0.003746906,0.003439656,1.007497718,0.126752326,0.199010776,-0.036339888,-0.001000000,-0.010000000,9.504750000,0.165000000,-0.060000000,9.730000000,1.625000000,1.343750000,2373.718750056
1780379801.021458387,1.723449945,-546.894436317,167.335748172,-0.072901059,-0.002567916,0.000141800,0.482714810,0.875773828,-0.004360959,0.002727514,1.007501616,0.129476964,0.204313353,-0.041323311,-0.010500000,-0.011500000,9.493750000,0.155000000,-0.110000000,9.740000000,-0.541666667,0.437500000,-0.375000000
1780379801.121515274,1.823506832,-546.880630773,167.357645183,-0.077622600,-0.002621916,-0.000246962,0.482716406,0.875772765,-0.004830860,0.002098719,1.007506315,0.141510104,0.225177411,-0.050351278,0.005500000,-0.007750000,-9.492500000,0.150000000,-0.060000000,9.735000000,0.906250000,0.781250000,-2374.156250056
1780379801.221533775,1.923525333,-546.869084513,167.376062068,-0.081886683,-0.002632635,-0.000403721,0.482717726,0.875771947,-0.005000971,0.001834505,1.007509899,0.150521959,0.240327475,-0.056611326,-0.005000000,0.003750000,-9.498500000,0.130000000,-0.030000000,9.735000000,0.500000000,1.906250000,-2376.250000056
1780379801.321475029,2.023466587,-546.854007825,167.400121454,-0.087678776,-0.002691932,-0.000478363,0.482719875,0.875770545,-0.005176892,0.001761027,1.007515047,0.159442527,0.254197130,-0.061796067,-0.000000000,-0.010500000,9.489500000,0.145000000,-0.070000000,9.760000000,-0.593750000,-1.656250000,2372.562500056
1780379801.421420574,2.123412132,-546.838208400,167.425267825,-0.093814092,-0.002846743,-0.000503917,0.482722817,0.875768419,-0.005472716,0.001865748,1.007521704,0.169058390,0.268825497,-0.065547410,-0.009750000,0.020250000,9.488500000,0.060000000,-0.010000000,9.785000000,-1.250000000,1.593750000,2372.718750056
1780379801.521468163,2.223459721,-546.821738582,167.451470691,-0.100151002,-0.003025488,-0.000508082,0.482726309,0.875765893,-0.005789812,0.002031044,1.007529486,0.175793657,0.279962122,-0.067212148,-0.011500000,0.010000000,-9.497500000,0.110000000,-0.070000000,9.760000000,-0.156250000,1.250000000,-2373.906250056
1780379801.621490479,2.323482037,-546.804685042,167.478706354,-0.106586209,-0.003112176,-0.000462395,0.482729870,0.875763651,-0.005897534,0.002194786,1.007537296,0.172101577,0.275447897,-0.064302657,0.020500000,0.008250000,9.508750000,0.070000000,-0.070000000,9.765000000,2.166666667,2.125000000,1584.812500158
1780379801.721684933,2.423676491,-546.787819676,167.505766841,-0.112767612,-0.003082345,-0.000347904,0.482733141,0.875762007,-0.005734739,0.002366540,1.007544299,0.177894212,0.285809945,-0.064279222,-0.003250000,0.013000000,-9.496500000,0.085000000,-0.040000000,9.810000000,-0.812500000,0.666666667,0.645833333
1780379801.821522474,2.523514032,-546.767547968,167.538345370,-0.119861853,-0.003011727,-0.000132040,0.482736976,0.875760198,-0.005402628,0.002676476,1.007552317,0.178907322,0.287428997,-0.061076639,-0.015250000,0.017000000,-9.496250000,0.070000000,-0.040000000,9.835000000,-1.312500000,0.958333333,-1582.354166584
1780379801.921613455,2.623605013,-546.748916931,167.568240353,-0.125985574,-0.003018426,0.000130738,0.482740662,0.875758143,-0.005160645,0.003143229,1.007559876,0.189537394,0.303894511,-0.060650452,0.021750000,-0.010000000,9.511500000,0.090000000,-0.065000000,9.840000000,2.937500000,-3.031250000,2377.125000056
1780379802.021431446,2.723423004,-546.730603283,167.597598732,-0.131602562,-0.003086424,0.000467472,0.482744331,0.875755769,-0.004954625,0.003798699,1.007567295,0.193805839,0.310739390,-0.057728905,0.013000000,0.021250000,9.498500000,0.065000000,-0.065000000,9.830000000,0.958333333,0.354166667,1581.958333251
1780379802.121435165,2.823426723,-546.711142561,167.628845355,-0.137110006,-0.003147664,0.000933969,0.482747849,0.875753238,-0.004611477,0.004674925,1.007574533,0.194862569,0.313212318,-0.053147193,-0.006500000,0.014500000,-9.505750000,0.020000000,-0.045000000,9.860000000,-0.687500000,0.770833333,-0.125000000
1780379802.221435547,2.923427105,-546.691326352,167.660749152,-0.142175146,-0.003148410,0.001507493,0.482750657,0.875750888,-0.004059035,0.005680202,1.007580971,0.199248316,0.321061077,-0.048534708,-0.001500000,0.018500000,-9.485000000,0.010000000,-0.060000000,9.850000000,0.500000000,1.208333333,-1582.270833491
1780379802.321505547,3.023497105,-546.671962632,167.691954894,-0.146513924,-0.003113357,0.002105002,0.482752616,0.875748701,-0.003420730,0.006692918,1.007586594,0.206631935,0.332942297,-0.043552496,0.018250000,0.002250000,9.500500000,-0.015000000,-0.075000000,9.835000000,0.250000000,-0.312500000,0.083333333
1780379802.421685696,3.123677254,-546.652252438,167.723678733,-0.150237885,-0.003090520,0.002693488,0.482754024,0.875746394,-0.002812527,0.007701624,1.007591905,0.213084069,0.342713231,-0.037164010,0.001000000,0.005750000,-9.511500000,0.000000000,0.040000000,9.885000000,-1.062500000,-2.437500000,-2376.000000056
1780379802.521457195,3.223448753,-546.632209811,167.755881996,-0.153278808,-0.003090640,0.003257750,0.482754930,0.875743977,-0.002267916,0.008690062,1.007596802,0.175540061,0.281923139,-0.023905931,0.004750000,-0.004000000,-9.504250000,-0.025000000,-0.005000000,9.895000000,-0.791666667,-1.020833333,-0.916666667
1780379802.621685028,3.323676586,-546.611025108,167.789908573,-0.155693490,-0.003079070,0.003847197,0.482755090,0.875741538,-0.001678512,0.009711326,1.007601141,0.150580278,0.241927420,-0.014787056,0.016250000,-0.000000000,9.491750000,-0.060000000,-0.080000000,9.830000000,2.562500000,-3.468750000,2374.968750056
1780379802.721477747,3.423469305,-546.592160261,167.820234206,-0.157185866,-0.003032151,0.004393867,0.482754293,0.875739569,-0.001068494,0.010623535,1.007604121,0.222686883,0.358087760,-0.014876205,0.002250000,-0.001750000,9.509750000,-0.055000000,-0.030000000,9.890000000,0.656250000,-0.531250000,2376.656250056
1780379802.821541309,3.523532867,-546.574841945,167.848088534,-0.158033229,-0.002967485,0.004915436,0.482752757,0.875737865,-0.000451627,0.011474643,1.007606159,0.100924147,0.162308677,-0.003863949,0.010250000,0.009250000,9.500500000,-0.060000000,-0.025000000,9.835000000,1.781250000,-0.687500000,2375.406250056
1780379802.921464920,3.623456478,-546.557359697,167.876188963,-0.158392974,-0.002908181,0.005445133,0.482750567,0.875736138,0.000163696,0.012345164,1.007607594,0.214265430,0.344220632,-0.002141913,0.006000000,0.020000000,9.492750000,-0.080000000,0.050000000,9.845000000,0.593750000,0.656250000,2373.124999517
1780379803.021436691,3.723428249,-546.539709528,167.904514923,-0.158257745,-0.002875226,0.005964010,0.482747901,0.875734336,0.000722421,0.013222181,1.007608429,0.218985723,0.351185851,0.003986674,0.001500000,0.008000000,9.505750000,-0.120000000,0.055000000,9.900000000,-1.531250000,-0.750000000,2374.875000056
1780379803.121452093,3.823443651,-546.521896096,167.933054973,-0.157621915,-0.002868113,0.006459977,0.482744861,0.875732517,0.001213762,0.014084023,1.007608631,0.223902198,0.358526115,0.010319159,0.021250000,0.001500000,-9.499750000,-0.120000000,-0.010000000,9.880000000,1.520833333,-0.208333333,-1582.208333251
1780379803.221456051,3.923447609,-546.503933191,167.961805300,-0.156488169,-0.002866125,0.006930022,0.482741433,0.875730820,0.001671096,0.014905414,1.007608173,0.234584289,0.375372847,0.017164107,0.008750000,0.013250000,9.501000000,-0.120000000,-0.010000000,9.865000000,2.343750000,0.718750000,2375.125000056
1780379803.321547270,4.023538828,-546.485836271,167.990763069,-0.154870357,-0.002845508,0.007374135,0.482737568,0.875729391,0.002136017,0.015663400,1.007607058,0.116274676,0.186049540,0.011500597,0.003750000,0.004250000,9.508750000,-0.135000000,0.010000000,9.880000000,0.500000000,0.718750000,2375.125000056
1780379803.421438217,4.123429775,-546.467614302,168.019919825,-0.152792039,-0.002797782,0.007787937,0.482733296,0.875728317,0.002619152,0.016342126,1.007605285,0.227161593,0.363430582,0.027912482,0.003500000,-0.006500000,9.501750000,-0.140000000,0.010000000,9.905000000,1.406250000,-1.093750000,2373.406250056
1780379803.521511316,4.223502874,-546.444661800,168.056621284,-0.149592283,-0.002718990,0.008246826,0.482727638,0.875727483,0.003200224,0.017069836,1.007602091,0.227447953,0.363502238,0.034106769,0.009000000,0.009250000,9.511750000,-0.160000000,0.060000000,9.850000000,-1.343750000,1.593750000,2375.906250056
1780379803.621482372,4.323473930,-546.426157581,168.086163710,-0.146592157,-0.002665458,0.008555208,0.482723117,0.875727181,0.003591726,0.017558315,1.007598683,0.232208664,0.370508653,0.039278691,0.005500000,0.013250000,9.492250000,-0.135000000,0.070000000,9.855000000,-0.250000000,1.625000000,2372.062500056
1780379803.721420765,4.423412323,-546.407531781,168.115850810,-0.143241124,-0.002631688,0.008809237,0.482718741,0.875727177,0.003896126,0.017970673,1.007594499,0.229356193,0.365371064,0.042677643,-0.001750000,0.002000000,9.502000000,-0.145000000,0.065000000,9.890000000,-0.395833333,0.125000000,0.333333333
1780379803.821521997,4.523513556,-546.388796706,168.145673843,-0.139581279,-0.002611265,0.009015754,0.482714497,0.875727476,0.004131262,0.018312701,1.007589595,0.252725230,0.402176819,0.050697061,0.011750000,-0.012750000,-9.484500000,-0.195000000,0.095000000,9.825000000,1.000000000,-0.937500000,-2374.093750056
1780379803.921474457,4.623466015,-546.369966867,168.175627936,-0.135659244,-0.002589879,0.009183431,0.482710305,0.875728108,0.004330575,0.018585769,1.007584059,0.043137920,0.068626649,0.009216998,0.004000000,-0.002500000,-9.479000000,-0.205000000,0.070000000,9.825000000,-0.781250000,2.000000000,-2372.812500056
1780379804.021582127,4.723573685,-546.351051857,168.205707801,-0.131524327,-0.002558590,0.009314815,0.482706147,0.875729104,0.004512186,0.018785708,1.007577953,0.239491028,0.380822428,0.053141514,0.013500000,-0.002500000,-9.504250000,-0.140000000,0.095000000,9.815000000,2.250000000,-0.375000000,-2376.156250056
1780379804.121434689,4.823426247,-546.327290470,168.243471922,-0.126131117,-0.002511584,0.009417276,0.482701166,0.875730890,0.004693374,0.018919816,1.007569520,0.236480431,0.375690877,0.054349330,0.002750000,0.015500000,-9.514000000,-0.175000000,0.115000000,9.820000000,1.375000000,0.781250000,-2376.062499516
1780379804.221600056,4.923591614,-546.303392781,168.281400249,-0.120573897,-0.002475969,0.009430182,0.482696742,0.875733291,0.004768129,0.018908060,1.007560132,0.242838938,0.385138794,0.056787899,0.001250000,-0.010250000,-9.498500000,-0.185000000,0.040000000,9.805000000,2.125000000,-2.906250000,-2375.593750056
1780379804.321598530,5.023590088,-546.284177790,168.311850991,-0.116069910,-0.002462707,0.009367306,0.482693749,0.875735653,0.004730572,0.018785138,1.007551962,0.242185506,0.383606207,0.056774070,-0.000250000,-0.008500000,-9.498750000,-0.205000000,0.095000000,9.795000000,0.791666667,-1.187500000,0.708333333
1780379804.421477318,5.123468876,-546.264885049,168.342392952,-0.111565319,-0.002456258,0.009242421,0.482691201,0.875738402,0.004621204,0.018560180,1.007543299,0.238925969,0.378114827,0.055575594,0.004750000,-0.002750000,-9.493000000,-0.185000000,0.090000000,9.790000000,0.729166667,-0.270833333,0.166666667
1780379804.521495819,5.223487377,-546.245525785,168.373022935,-0.107110897,-0.002445493,0.009064180,0.482688980,0.875741519,0.004467878,0.018237594,1.007534255,0.257370955,0.407141270,0.058743941,0.002250000,-0.007500000,-9.497000000,-0.165000000,0.090000000,9.835000000,0.750000000,-0.041666667,0.416666667
1780379804.621474266,5.323465824,-546.226108869,168.403735838,-0.102760274,-0.002424706,0.008840426,0.482686985,0.875744964,0.004288164,0.017825609,1.007524913,0.133204854,0.210669212,0.029465727,-0.007500000,0.007750000,-9.502250000,-0.200000000,0.075000000,9.755000000,-1.541666667,1.458333333,-0.312500000
1780379804.721546412,5.423537970,-546.201761652,168.442230870,-0.097549732,-0.002392090,0.008501332,0.482684776,0.875749629,0.004017788,0.017200175,1.007512872,0.174160049,0.275273693,0.036342833,0.001000000,-0.009000000,9.480750000,-0.200000000,0.050000000,9.775000000,-0.406250000,0.093750000,2371.999999517
1780379804.821565390,5.523556948,-546.182223275,168.473098650,-0.093624533,-0.002373586,0.008182095,0.482683269,0.875753551,0.003741894,0.016623143,1.007502994,0.246079781,0.388626221,0.048219012,0.012000000,-0.006500000,9.494750000,-0.165000000,0.000000000,9.765000000,0.062500000,-0.593750000,2373.531250056
1780379804.921552896,5.623544455,-546.157727087,168.511761465,-0.089094040,-0.002369886,0.007724666,0.482681699,0.875758580,0.003306633,0.015818345,1.007490441,0.244400199,0.385601495,0.043317899,-0.000250000,-0.015500000,9.499500000,-0.195000000,0.005000000,9.805000000,-0.041666667,-1.020833333,0.354166667
1780379805.021502495,5.723494053,-546.133160216,168.550505719,-0.085049442,-0.002379878,0.007212000,0.482680329,0.875763680,0.002794075,0.014930011,1.007477822,0.244343915,0.385302176,0.038100032,0.006750000,-0.015000000,-9.490000000,-0.170000000,0.020000000,9.745000000,2.093750000,0.187500000,-2374.156250056
1780379805.121584654,5.823576212,-546.110508927,168.586220792,-0.081812484,-0.002385780,0.006703669,0.482679056,0.875768404,0.002292888,0.014045318,1.007466275,0.236619932,0.373110428,0.031779243,-0.002000000,-0.005000000,9.489000000,-0.150000000,0.005000000,9.740000000,0.187500000,0.708333333,1581.645833251
1780379805.221573114,5.923564672,-546.088805556,168.620443171,-0.079192555,-0.002382093,0.006191626,0.482677734,0.875772913,0.001804931,0.013144862,1.007455368,0.249078315,0.392738510,0.027888451,-0.023750000,-0.005750000,-9.500750000,-0.130000000,0.015000000,9.730000000,-2.531250000,0.937500000,-2374.093750056
1780379805.321499109,6.023490667,-546.064100474,168.659394853,-0.076824268,-0.002373602,0.005581823,0.482676093,0.875777939,0.001231018,0.012068531,1.007443205,0.245651736,0.387256041,0.020860304,-0.014750000,-0.012250000,9.493750000,-0.140000000,0.055000000,9.720000000,-1.750000000,0.750000000,2374.812500056
1780379805.421451807,6.123443365,-546.044304925,168.690596886,-0.075421919,-0.002371801,0.005074741,0.482674681,0.875781807,0.000744585,0.011178581,1.007433732,0.236521856,0.372750949,0.014737309,-0.009500000,-0.013500000,9.497750000,-0.075000000,0.005000000,9.730000000,-0.375000000,0.031250000,2376.125000056
1780379805.521668911,6.223660469,-546.021510085,168.726517764,-0.074370823,-0.002378130,0.004478175,0.482672914,0.875786018,0.000157529,0.010139738,1.007423210,0.241669695,0.380794278,0.008610632,-0.015000000,0.004250000,9.503250000,-0.100000000,-0.010000000,9.735000000,-1.291666667,1.645833333,1.208333333
1780379805.621453524,6.323445082,-545.996707372,168.765604874,-0.073924117,-0.002388167,0.003829568,0.482670720,0.875790276,-0.000486246,0.009013314,1.007412266,0.245928508,0.387606808,0.001534877,-0.006000000,-0.015000000,9.481500000,-0.110000000,-0.025000000,9.725000000,-1.750000000,0.583333333,1580.979166824
1780379805.721542597,6.423534155,-545.971890975,168.804733819,-0.074206867,-0.002391908,0.003199008,0.482668177,0.875794197,-0.001101554,0.007912424,1.007401860,0.244256088,0.385240870,-0.005645742,0.003750000,-0.028000000,-9.501500000,-0.060000000,0.020000000,9.715000000,0.500000000,-0.979166667,1.166666667
1780379805.821532488,6.523524046,-545.946073867,168.845466370,-0.075266572,-0.002388863,0.002574523,0.482665187,0.875797912,-0.001699098,0.006815619,1.007391604,0.178292510,0.281389668,-0.009665766,-0.001750000,-0.014750000,9.503750000,-0.035000000,-0.015000000,9.705000000,0.656250000,0.218750000,2375.093750056
1780379805.921581030,6.623572588,-545.922236381,168.883093884,-0.076917442,-0.002387652,0.002030540,0.482662211,0.875800986,-0.002222126,0.005861591,1.007382700,0.249060499,0.393185447,-0.019846011,-0.002250000,-0.012000000,-9.500000000,-0.055000000,-0.035000000,9.765000000,0.000000000,-1.000000000,-1583.062499917
1780379806.021477461,6.723469019,-545.897400831,168.922312947,-0.079289263,-0.002392958,0.001501491,0.482658981,0.875803818,-0.002742144,0.004940009,1.007374049,0.252064454,0.398116224,-0.026665915,0.007250000,-0.004000000,-9.501000000,-0.010000000,-0.015000000,9.700000000,0.937500000,0.687500000,-2374.437500056
1780379806.121466637,6.823458195,-545.872567362,168.961555033,-0.082278821,-0.002400107,0.001020388,0.482655673,0.875806314,-0.003219099,0.004104186,1.007366013,0.206470078,0.326390951,-0.026801920,0.002500000,0.004500000,-9.507250000,-0.050000000,-0.035000000,9.755000000,3.156249999,1.187500000,-2376.031249516
1780379806.221458435,6.923449993,-545.851714964,168.994535929,-0.085224695,-0.002400983,0.000662355,0.482652860,0.875808206,-0.003566255,0.003477880,1.007359662,0.252319784,0.399234112,-0.037368972,-0.011750000,-0.002500000,-9.489000000,0.030000000,-0.020000000,9.745000000,-0.375000000,0.583333333,1.166666667
1780379806.321484327,7.023475885,-545.827896537,169.032246239,-0.089024100,-0.002393710,0.000312453,0.482649653,0.875810188,-0.003891285,0.002857950,1.007352774,0.243830940,0.386224881,-0.040635998,-0.006500000,-0.005250000,-9.499250000,-0.005000000,-0.060000000,9.790000000,-2.333333333,-0.333333333,-1583.645833251
1780379806.421536922,7.123528481,-545.806075531,169.066827379,-0.092860047,-0.002383185,0.000050706,0.482646790,0.875811849,-0.004125522,0.002389294,1.007346787,0.070599195,0.111904156,-0.012857539,-0.002500000,0.003000000,9.509000000,-0.015000000,-0.090000000,9.750000000,-0.406250000,-0.468750000,2376.875000056
1780379806.521583796,7.223575354,-545.782284422,169.104563305,-0.097365122,-0.002373837,-0.000168393,0.482643831,0.875813490,-0.004320647,0.001996476,1.007340635,0.256156831,0.406416918,-0.049761293,-0.000500000,0.008000000,9.499250000,-0.005000000,-0.070000000,9.745000000,1.750000000,3.187500000,2375.781250056
1780379806.621428728,7.323420286,-545.761479369,169.137589980,-0.101523639,-0.002369095,-0.000300682,0.482641417,0.875814798,-0.004440042,0.001760164,1.007335550,0.246214737,0.390982838,-0.049984804,-0.002500000,-0.003000000,9.502000000,0.035000000,-0.025000000,9.760000000,-1.125000000,-0.593750000,2374.625000056
1780379806.721463203,7.423454762,-545.746626350,169.161184758,-0.104586297,-0.002366239,-0.000359317,0.482639791,0.875815679,-0.004491640,0.001654692,1.007332042,0.243789671,0.387345652,-0.050620094,-0.005500000,-0.003250000,-9.503250000,0.040000000,-0.050000000,9.815000000,-2.083333334,-1.750000000,-1583.270833491
1780379806.821483850,7.523475409,-545.726834327,169.192651008,-0.108749667,-0.002360371,-0.000388930,0.482637748,0.875816808,-0.004509952,0.001597146,1.007327488,0.260202793,0.413811909,-0.055075459,0.012250000,-0.000500000,9.496250000,0.020000000,-0.080000000,9.790000000,2.250000000,-1.406250000,2372.937499517
1780379806.921504974,7.623496532,-545.707056240,169.224124992,-0.112958566,-0.002350508,-0.000362221,0.482635829,0.875817904,-0.004466896,0.001634400,1.007323021,0.110598655,0.176055538,-0.023575512,0.001000000,0.009500000,9.498000000,-0.025000000,-0.060000000,9.795000000,-1.343750000,0.718750000,2377.374999516
1780379807.021649599,7.723641157,-545.687290858,169.255606405,-0.117162901,-0.002337562,-0.000280410,0.482634017,0.875818967,-0.004365253,0.001765198,1.007318619,0.248801377,0.396381034,-0.052773858,-0.001750000,-0.003250000,9.497750000,-0.000000000,-0.020000000,9.850000000,-0.406250000,-0.937500000,2374.812500056
1780379807.121516466,7.823508024,-545.662598488,169.294967503,-0.122336337,-0.002321241,-0.000104826,0.482631874,0.875820230,-0.004167185,0.002056994,1.007313212,0.244097460,0.389240644,-0.050592545,0.006000000,0.003000000,9.510500000,-0.010000000,-0.040000000,9.810000000,-1.218750000,0.000000000,2373.531250056
1780379807.221529484,7.923521042,-545.642853242,169.326463103,-0.126350291,-0.002310514,0.000091079,0.482630213,0.875821175,-0.003959302,0.002389787,1.007308946,0.251335917,0.401004500,-0.050420482,0.005750000,0.011000000,9.497750000,0.025000000,-0.055000000,9.815000000,-1.875000000,1.281250000,2372.687500056
1780379807.321503401,8.023494959,-545.623114700,169.357965080,-0.130202244,-0.002301487,0.000334523,0.482628550,0.875822056,-0.003708509,0.002807495,1.007304706,0.244029140,0.389558205,-0.046754106,0.010500000,0.008000000,9.506750000,-0.025000000,-0.035000000,9.855000000,1.187500000,0.375000000,2375.406249516
1780379807.421545267,8.123536825,-545.603382539,169.389474279,-0.133846966,-0.002292212,0.000624476,0.482626818,0.875822876,-0.003412390,0.003306433,1.007300447,0.259301885,0.414169014,-0.046755653,0.002250000,-0.008500000,9.511500000,-0.040000000,-0.045000000,9.835000000,-0.562500000,-2.499999999,2374.843749516
1780379807.521532297,8.223523855,-545.583655972,169.420991404,-0.137241592,-0.002281292,0.000959180,0.482624953,0.875823630,-0.003070198,0.003882172,1.007296134,0.122326354,0.195485433,-0.020415770,0.012750000,0.025750000,9.485000000,-0.040000000,-0.020000000,9.835000000,0.437500000,1.031250000,2373.562499516
1780379807.621490955,8.323482513,-545.563932992,169.452516596,-0.140346197,-0.002269287,0.001335233,0.482622893,0.875824304,-0.002686196,0.004529295,1.007291751,0.247349367,0.395431892,-0.037470739,-0.003000000,0.016250000,-9.517500000,-0.015000000,-0.005000000,9.855000000,-1.156250000,2.468750000,-2377.343750056
1780379807.721431732,8.423423290,-545.544210560,169.484049566,-0.143124268,-0.002258393,0.001747694,0.482620588,0.875824876,-0.002269000,0.005241266,1.007287298,0.248076150,0.396676081,-0.033310059,0.011500000,0.001750000,-9.490250000,-0.045000000,-0.000000000,9.840000000,1.875000000,-2.218750000,-2372.625000056
1780379807.821542025,8.523533583,-545.519553669,169.523476591,-0.146088126,-0.002249505,0.002306030,0.482617300,0.875825419,-0.001714520,0.006210700,1.007281637,0.245264455,0.392200531,-0.027107786,0.001000000,0.018500000,9.495000000,-0.055000000,-0.050000000,9.845000000,0.354166667,2.375000000,1581.145833251
1780379807.921558380,8.623549938,-545.499821975,169.555027270,-0.148017812,-0.002246640,0.002780642,0.482614290,0.875825706,-0.001251407,0.007039294,1.007277006,0.249038266,0.398217792,-0.022416886,0.006000000,0.000250000,9.516250000,-0.030000000,0.000000000,9.820000000,-0.062500000,0.062500000,1584.979166824
1780379808.021501303,8.723492861,-545.475147202,169.594478581,-0.149839857,-0.002246205,0.003401318,0.482609988,0.875825888,-0.000651571,0.008126096,1.007271052,0.248417784,0.397152362,-0.015617876,0.004000000,0.000250000,-9.497500000,-0.090000000,-0.030000000,9.915000000,-0.312500000,0.218750000,-2372.937500056
1780379808.121653080,8.823644638,-545.455397790,169.626051280,-0.150803503,-0.002246755,0.003913997,0.482606081,0.875825898,-0.000157701,0.009024678,1.007266135,0.257039422,0.410877636,-0.010350376,0.007250000,-0.000250000,-9.510750000,-0.120000000,0.030000000,9.885000000,-0.750000000,-0.770833333,0.125000000
1780379808.221447468,8.923439026,-545.435637563,169.657634651,-0.151314504,-0.002248249,0.004434963,0.482601751,0.875825797,0.000342509,0.009938691,1.007261061,0.134853910,0.215508849,-0.002315719,0.001000000,-0.001750000,9.498500000,-0.145000000,0.010000000,9.885000000,-0.093750000,-0.500000000,2375.281250056
1780379808.321475983,9.023467541,-545.410918030,169.697128462,-0.151307044,-0.002253864,0.005088142,0.482595765,0.875825530,0.000963107,0.011088286,1.007254471,0.165290311,0.264012155,0.001975609,0.005250000,0.008500000,-9.497250000,-0.110000000,0.035000000,9.820000000,-0.895833333,-0.708333333,-1582.541666584
1780379808.421480656,9.123472214,-545.387163574,169.735057532,-0.150624019,-0.002265738,0.005706671,0.482589481,0.875825150,0.001539293,0.012183235,1.007247867,0.224878612,0.358965717,0.009055706,0.028250000,0.020250000,9.501000000,-0.135000000,-0.000000000,9.885000000,2.593750000,1.125000000,2375.968750056
1780379808.521564007,9.223555565,-545.364374828,169.771420223,-0.149357855,-0.002283347,0.006282717,0.482583031,0.875824715,0.002064424,0.013209311,1.007241246,0.248989399,0.397170885,0.016344994,0.014750000,0.018250000,-9.513500000,-0.115000000,0.060000000,9.895000000,1.375000000,0.906250000,-2376.750000056
1780379808.621433496,9.323425055,-545.341561401,169.807797200,-0.147511721,-0.002305462,0.006835046,0.482576233,0.875824267,0.002558763,0.014198198,1.007234300,0.251375515,0.400732816,0.022770704,0.009500000,0.011000000,9.498750000,-0.170000000,0.020000000,9.915000000,0.708333333,-0.791666667,1582.395833491
1780379808.721500874,9.423492432,-545.316734790,169.847353924,-0.144879085,-0.002333172,0.007399954,0.482568550,0.875823836,0.003055432,0.015214530,1.007226336,0.252295648,0.401841729,0.029288860,0.009000000,-0.001000000,-9.492500000,-0.150000000,0.080000000,9.890000000,1.562500000,-1.593750000,-2374.468750056
1780379808.821569920,9.523561478,-545.291875876,169.886927793,-0.141639431,-0.002365341,0.007917915,0.482560713,0.875823538,0.003498971,0.016152937,1.007217912,0.248881748,0.396042659,0.034716129,0.007250000,0.004750000,9.508250000,-0.190000000,0.020000000,9.850000000,0.812500000,-2.218750000,2375.406250056
1780379808.921450138,9.623441696,-545.266982723,169.926518163,-0.137849991,-0.002403786,0.008378628,0.482552898,0.875823453,0.003876248,0.016997124,1.007208988,0.251148461,0.399279369,0.040272120,0.008000000,0.004250000,9.492750000,-0.130000000,0.060000000,9.845000000,1.593750000,-2.375000000,2374.250000056
1780379809.021501064,9.723492622,-545.247042451,169.958201711,-0.134467673,-0.002439473,0.008700104,0.482546774,0.875823594,0.004123968,0.017594741,1.007201460,0.251161294,0.398968990,0.043939749,0.018750000,0.008750000,9.495250000,-0.195000000,0.045000000,9.840000000,1.000000000,0.781250000,2373.843750056
1780379809.121655226,9.823646784,-545.222085588,169.997820278,-0.129864993,-0.002488962,0.009037673,0.482539401,0.875824099,0.004363020,0.018233879,1.007191555,0.246446003,0.391086525,0.046900039,0.002250000,0.002500000,-9.493500000,-0.180000000,0.080000000,9.840000000,-0.625000000,-2.593750000,-2374.656250056
1780379809.221440792,9.923432350,-545.199094832,170.034282822,-0.125329284,-0.002537571,0.009281239,0.482532990,0.875824944,0.004512877,0.018707497,1.007181943,0.249865365,0.396161316,0.050319442,0.003500000,0.012750000,9.493250000,-0.180000000,0.035000000,9.860000000,1.208333333,2.375000000,1582.729166584
1780379809.321589708,10.023581266,-545.176075879,170.070757844,-0.120576168,-0.002588396,0.009457106,0.482527027,0.875826199,0.004593500,0.019064659,1.007171861,0.242497114,0.384106046,0.050766846,0.010500000,0.005500000,-9.526250000,-0.190000000,0.100000000,9.825000000,3.000000000,0.531250000,-2379.406250056
1780379809.421439171,10.123430729,-545.152026524,170.108830973,-0.115463566,-0.002644335,0.009565075,0.482521370,0.875827977,0.004599615,0.019307815,1.007160852,0.248436816,0.393142287,0.053221657,-0.007500000,0.012000000,9.498750000,-0.205000000,0.045000000,9.805000000,0.312500000,-1.000000000,2374.750000056
1780379809.521466017,10.223457575,-545.127947387,170.146915215,-0.110279536,-0.002703814,0.009593431,0.482516351,0.875830250,0.004522678,0.019414923,1.007149365,0.224931682,0.355612196,0.048472861,-0.014000000,0.011000000,9.497000000,-0.195000000,0.055000000,9.810000000,-0.781250000,0.000000000,2372.781249517
1780379809.621588230,10.323579788,-545.102835066,170.186597226,-0.104897750,-0.002768686,0.009537596,0.482511829,0.875833148,0.004355024,0.019379745,1.007136941,0.257436432,0.406664261,0.054831963,-0.003250000,0.010500000,-9.491250000,-0.230000000,0.080000000,9.795000000,0.406250000,1.468750000,-2375.250000056
1780379809.721461535,10.423453093,-545.077694702,170.226289595,-0.099632079,-0.002834357,0.009395919,0.482508008,0.875836575,0.004103113,0.019194957,1.007124121,0.251257548,0.396579803,0.051906522,-0.014750000,0.005500000,-9.509500000,-0.220000000,0.050000000,9.790000000,1.281250000,-1.562500000,-2376.468750056
1780379809.821717501,10.523709059,-545.053535985,170.264403072,-0.094776500,-0.002896396,0.009181504,0.482504953,0.875840328,0.003787366,0.018879236,1.007111519,0.178038057,0.280796039,0.035008448,-0.001500000,0.001750000,9.488750000,-0.185000000,-0.015000000,9.790000000,0.437500000,1.000000000,2373.406250056
1780379809.921388149,10.623379707,-545.028347996,170.304112377,-0.090017228,-0.002959425,0.008879631,0.482502345,0.875844667,0.003385471,0.018411254,1.007098175,0.238173945,0.375370295,0.043632728,-0.003250000,-0.001750000,9.493250000,-0.205000000,0.070000000,9.750000000,1.531250000,2.656250000,2373.062500056
1780379810.021563053,10.723554611,-545.008182760,170.335884535,-0.086488460,-0.003008718,0.008583243,0.482500625,0.875848402,0.003012968,0.017939618,1.007087418,0.263203985,0.414606335,0.044691647,-0.003500000,-0.002500000,9.490500000,-0.195000000,0.020000000,9.705000000,0.145833333,0.541666667,-0.604166667
1780379810.121657848,10.823649406,-544.985987609,170.370837649,-0.082948200,-0.003061406,0.008204672,0.482499036,0.875852722,0.002555198,0.017327286,1.007075577,0.055526920,0.087425698,0.008410944,-0.002250000,-0.001750000,9.508000000,-0.165000000,0.050000000,9.755000000,1.093750000,0.562500000,2376.500000056
1780379810.221435070,10.923426628,-544.965800133,170.402615932,-0.080082949,-0.003106988,0.007816865,0.482497797,0.875856792,0.002100982,0.016691913,1.007064876,0.245039983,0.385698968,0.033140295,-0.001250000,-0.007750000,-9.498000000,-0.150000000,0.060000000,9.730000000,2.375000000,-0.656250000,-2374.218749516
1780379810.321465492,11.023457050,-544.945605316,170.434396242,-0.077590936,-0.003149243,0.007392008,0.482496681,0.875860944,0.001616848,0.015988421,1.007054305,0.248111463,0.390429765,0.028806431,-0.010750000,-0.004000000,9.499750000,-0.150000000,0.055000000,9.755000000,-1.145833333,1.062500000,0.416666667
1780379810.421457052,11.123448610,-544.925405307,170.466177947,-0.075503634,-0.003187316,0.006934762,0.482495623,0.875865129,0.001108796,0.015224153,1.007043927,0.249298917,0.392226589,0.023809645,-0.010000000,0.000250000,9.485750000,-0.195000000,0.015000000,9.760000000,-0.375000000,0.531250000,2373.093750056
1780379810.521470070,11.223461628,-544.910252961,170.490014586,-0.074220157,-0.003212877,0.006573438,0.482494830,0.875868258,0.000715263,0.014615845,1.007036305,0.030798495,0.048438864,0.002371798,0.007250000,-0.019750000,-9.503750000,-0.190000000,0.005000000,9.730000000,1.208333333,-0.458333333,-1583.874999917
1780379810.621569872,11.323561430,-544.886007798,170.528153187,-0.072695301,-0.003248299,0.005968189,0.482493508,0.875873189,0.000069036,0.013589738,1.007024472,0.234668471,0.369136910,0.012069876,-0.004750000,-0.008750000,9.503000000,-0.165000000,0.055000000,9.730000000,0.343750000,-0.062500000,2373.375000056
1780379810.721460104,11.423451662,-544.864794226,170.561523411,-0.071915549,-0.003273585,0.005417373,0.482492244,0.875877372,-0.000506878,0.012649205,1.007014547,0.251934507,0.396330536,0.006873039,-0.003250000,0.002750000,9.503000000,-0.115000000,0.015000000,9.730000000,-1.000000000,2.906250000,2374.625000056
1780379810.821479797,11.523471355,-544.844593947,170.593302711,-0.071667726,-0.003292204,0.004880617,0.482490903,0.875881196,-0.001057526,0.011726866,1.007005513,0.252721214,0.397625322,0.000812526,0.010250000,0.008750000,9.501000000,-0.125000000,-0.035000000,9.725000000,0.791666667,2.437500000,1.083333333
1780379810.921686888,11.623678446,-544.824399426,170.625079686,-0.071909294,-0.003304731,0.004338066,0.482489402,0.875884831,-0.001603080,0.010788497,1.006996929,0.248421842,0.390959740,-0.005237341,-0.000000000,-0.016500000,9.499000000,-0.080000000,-0.040000000,9.750000000,-1.500000000,0.593750000,2375.500000056
1780379811.021454096,11.723445654,-544.804213195,170.656853763,-0.072641203,-0.003310473,0.003795796,0.482487725,0.875888251,-0.002136463,0.009844070,1.006988823,0.257530834,0.405440409,-0.011677785,0.003250000,0.005750000,9.494000000,-0.075000000,-0.025000000,9.735000000,-0.687500000,3.031250000,2374.406250056
1780379811.121636391,11.823627949,-544.786054638,170.685447430,-0.073715443,-0.003309529,0.003312914,0.482486065,0.875891128,-0.002600812,0.008997229,1.006981953,0.168801270,0.265870805,-0.011498731,0.003000000,-0.022250000,9.501250000,-0.085000000,-0.020000000,9.715000000,1.750000000,-0.937500000,2376.750000056
1780379811.221586943,11.923578501,-544.763874870,170.720390610,-0.075551918,-0.003300504,0.002735687,0.482483854,0.875894373,-0.003142041,0.007977309,1.006974116,0.246481441,0.388426465,-0.022846555,-0.021500000,-0.009750000,9.502250000,-0.070000000,-0.065000000,9.700000000,-1.104166667,-0.604166667,-0.770833333
1780379811.321618080,12.023609638,-544.738692693,170.760091589,-0.078312561,-0.003279954,0.002105931,0.482481137,0.875897688,-0.003713760,0.006854246,1.006965963,0.250136347,0.394492670,-0.030195976,0.002500000,-0.015250000,-9.519000000,-0.065000000,-0.020000000,9.735000000,2.718750000,-0.750000000,-2377.937500056
1780379811.421556473,12.123548031,-544.718566157,170.791846021,-0.081010093,-0.003255638,0.001629086,0.482478842,0.875900059,-0.004131314,0.005995422,1.006959998,0.251259916,0.396548794,-0.035644774,-0.014750000,-0.003500000,9.508250000,-0.080000000,-0.080000000,9.725000000,-0.458333333,0.041666667,1583.395833251
1780379811.521475077,12.223466635,-544.698458930,170.823594439,-0.084112998,-0.003224097,0.001182036,0.482476481,0.875902194,-0.004507453,0.005181821,1.006954508,0.237425302,0.375015114,-0.038370416,0.002000000,-0.010000000,-9.498750000,-0.030000000,-0.055000000,9.725000000,-0.906250000,1.000000000,-2374.656250056
1780379811.621560574,12.323552132,-544.673354597,170.863270933,-0.088512253,-0.003174194,0.000672863,0.482473498,0.875904559,-0.004911368,0.004241670,1.006948261,0.248748828,0.393302619,-0.045759451,0.006000000,-0.023250000,-9.499250000,-0.045000000,-0.030000000,9.780000000,0.687500000,-2.000000000,-2374.437500056
1780379811.721785545,12.423777103,-544.653296876,170.895004697,-0.092402875,-0.003125945,0.000310845,0.482471140,0.875906234,-0.005176178,0.003560905,1.006943715,0.262238925,0.415025195,-0.052374412,-0.005000000,0.006750000,-9.508250000,-0.035000000,-0.030000000,9.765000000,-3.000000000,0.968750000,-2376.187500056
1780379811.821812153,12.523803711,-544.632261829,170.928317510,-0.096794050,-0.003067764,-0.000021160,0.482468740,0.875907817,-0.005394625,0.002923136,1.006939313,0.110196748,0.174563092,-0.023681790,0.004250000,-0.004500000,9.499000000,-0.015000000,-0.085000000,9.795000000,2.593750000,-0.062500000,2377.500000056
1780379811.921530724,12.623522282,-544.608255141,170.966379592,-0.102129926,-0.002992628,-0.000335182,0.482466147,0.875909441,-0.005566013,0.002300507,1.006934688,0.131275161,0.208239249,-0.029860756,0.006250000,-0.004000000,9.493000000,-0.020000000,-0.070000000,9.720000000,-0.281250000,-0.125000000,2373.312500056
1780379812.021455050,12.723446608,-544.588277062,170.998089867,-0.106777156,-0.002923546,-0.000540000,0.482464143,0.875910676,-0.005642630,0.001875030,1.006931097,0.245472507,0.389760146,-0.057815538,0.016750000,-0.006750000,9.505000000,-0.015000000,-0.060000000,9.780000000,3.312499999,0.125000000,2376.906249516
1780379812.121660948,12.823652506,-544.563339937,171.037717501,-0.112759707,-0.002829491,-0.000719292,0.482461865,0.875912111,-0.005650869,0.001470170,1.006926858,0.253798631,0.403532929,-0.061488332,0.002500000,0.006500000,9.495000000,0.005000000,-0.080000000,9.775000000,1.291666667,2.083333334,-0.708333333
1780379812.221507788,12.923499346,-544.538441545,171.077333988,-0.118837656,-0.002727577,-0.000809991,0.482459842,0.875913469,-0.005559852,0.001212928,1.006922786,0.252966386,0.402716951,-0.061919356,0.006000000,0.001500000,9.516000000,0.015000000,-0.060000000,9.770000000,-0.312500000,0.541666667,1585.833333251
1780379812.321480751,13.023472309,-544.513580066,171.116939561,-0.124904118,-0.002619016,-0.000810117,0.482458048,0.875914788,-0.005369794,0.001107943,1.006918767,0.248759393,0.396459479,-0.060428352,0.004750000,-0.000250000,-9.500750000,0.015000000,-0.085000000,9.820000000,-1.218750000,-0.718750000,-2373.562500056
1780379812.421531677,13.123523235,-544.493716143,171.148616720,-0.129676572,-0.002528500,-0.000744773,0.482456747,0.875915829,-0.005148174,0.001135068,1.006915536,0.249632428,0.398204095,-0.059486945,0.013250000,-0.002250000,-9.520250000,0.025000000,-0.080000000,9.790000000,1.083333333,-0.229166667,-2.229166667
1780379812.521647453,13.223639011,-544.468914830,171.188204449,-0.135451346,-0.002412254,-0.000582236,0.482455217,0.875917123,-0.004787696,0.001307629,1.006911398,0.246483069,0.393575958,-0.056350717,-0.001000000,0.027250000,-9.499250000,0.020000000,-0.090000000,9.830000000,0.125000000,2.250000000,-1582.958333251
1780379812.621426582,13.323418140,-544.444142313,171.227783727,-0.140916582,-0.002293974,-0.000332133,0.482453700,0.875918406,-0.004339165,0.001631630,1.006907093,0.257180301,0.411053766,-0.055223628,0.002250000,0.005750000,9.496500000,-0.005000000,-0.080000000,9.835000000,-0.854166667,0.541666667,-1.729166667
1780379812.721408129,13.423399687,-544.419394128,171.267355582,-0.145971973,-0.002175039,0.000001791,0.482452066,0.875919673,-0.003808608,0.002101843,1.006902545,0.278362998,0.445237847,-0.054778753,-0.006250000,0.013000000,9.481750000,0.030000000,-0.035000000,9.840000000,-0.708333333,1.916666667,1581.604166824
1780379812.821510792,13.523502350,-544.394665267,171.306921116,-0.150523377,-0.002057022,0.000414328,0.482450170,0.875920904,-0.003203809,0.002710661,1.006897696,0.266674679,0.426749130,-0.046689367,0.009000000,0.011000000,-9.509500000,-0.020000000,-0.065000000,9.825000000,-0.531250000,2.468750000,-2376.875000056
1780379812.921438217,13.623429775,-544.372916114,171.341734816,-0.154042996,-0.001955447,0.000837127,0.482448176,0.875921933,-0.002617914,0.003353326,1.006893164,0.228751836,0.366208837,-0.034914613,0.017500000,0.007750000,9.499250000,-0.030000000,-0.070000000,9.865000000,2.562500000,1.437500000,2376.406250056
1780379813.021423101,13.723414660,-544.348210143,171.381292492,-0.157420850,-0.001844483,0.001378403,0.482445416,0.875923010,-0.001901260,0.004194486,1.006887691,0.252694897,0.404642812,-0.031685772,-0.007250000,0.005500000,9.499250000,-0.035000000,-0.010000000,9.860000000,-3.156250000,2.687500000,2377.812500056
1780379813.121704340,13.823695898,-544.324496213,171.419265563,-0.159981602,-0.001744119,0.001951031,0.482442154,0.875923923,-0.001172927,0.005100804,1.006882092,0.243253558,0.389538808,-0.023425910,0.000750000,0.013250000,-9.498250000,-0.060000000,0.010000000,9.845000000,-0.062500000,2.093750000,-2376.343750056
1780379813.221454859,13.923446417,-544.299792990,171.458819886,-0.161884889,-0.001647557,0.002593384,0.482438020,0.875924721,-0.000383985,0.006132945,1.006875893,0.241451092,0.386567533,-0.015445563,0.007250000,0.026500000,-9.499750000,-0.030000000,0.010000000,9.905000000,-0.687500000,1.343750000,-2375.125000056
1780379813.321470737,14.023462296,-544.275083548,171.498374806,-0.162966232,-0.001560632,0.003272170,0.482433060,0.875925340,0.000423223,0.007238218,1.006869316,0.242472648,0.388084658,-0.007305041,-0.010000000,0.024000000,9.509000000,-0.060000000,-0.030000000,9.865000000,-2.750000000,1.937500000,2374.906250056
1780379813.421591759,14.123583317,-544.250363124,171.537931914,-0.163196528,-0.001484933,0.003976098,0.482427240,0.875925764,0.001235018,0.008398376,1.006862365,0.243954555,0.390305503,0.001131756,0.010750000,0.019500000,9.488500000,-0.110000000,0.005000000,9.915000000,2.093750000,1.718750000,2374.406250056
